lifeline,name,url,phone,distance,price,id,zipcode,city,state,address1,address2,address3,display_address,latitude,longitude,alias1,alias2,alias3
communications,WERS 88.9FM,https://www.yelp.com/biz/wers-88-9fm-boston?adjust_creative=45kqYYhpW-MD2mr1wGE7bw&utm_campaign=yelp_api_v3&utm_medium=api_v3_business_search&utm_source=45kqYYhpW-MD2mr1wGE7bw,+16178248084,795.9591881837976,,P98XXNv_cl1Diap94dYO2Q,02108,Boston,MA,180 Tremont St,,,180 Tremont St,42.352707,-71.064118,radiostations,NA,NA
communications,Capital One Café,https://www.yelp.com/biz/capital-one-caf%C3%A9-boston-3?adjust_creative=45kqYYhpW-MD2mr1wGE7bw&utm_campaign=yelp_api_v3&utm_medium=api_v3_business_search&utm_source=45kqYYhpW-MD2mr1wGE7bw,+16178320620,701.6036219276317,$,xLTJAH7UlgVMjvGqdRU_Pw,02118,Boston,MA,310 Harrison Ave,,,310 Harrison Ave,42.3460064,-71.0630752,coffee,NA,NA
communications,Capital One Café,https://www.yelp.com/biz/capital-one-caf%C3%A9-boston-4?adjust_creative=45kqYYhpW-MD2mr1wGE7bw&utm_campaign=yelp_api_v3&utm_medium=api_v3_business_search&utm_source=45kqYYhpW-MD2mr1wGE7bw,+16172360585,871.8805913750172,$,3cyVW2fqYpFoY3aheBMUdg,02116,Boston,MA,799 Boylston St,,,799 Boylston St,42.349119,-71.081711,banks,NA,NA
communications,Capital One Café,https://www.yelp.com/biz/capital-one-caf%C3%A9-boston-5?adjust_creative=45kqYYhpW-MD2mr1wGE7bw&utm_campaign=yelp_api_v3&utm_medium=api_v3_business_search&utm_source=45kqYYhpW-MD2mr1wGE7bw,+16174820152,1207.8988016499693,$,I0JjUle_W-9Ukv_bbd0NeA,02108,Boston,MA,129 Tremont St,,,129 Tremont St,42.3562641,-71.0619601,banks,NA,NA
communications,WBUR 90.9 FM,https://www.yelp.com/biz/wbur-90-9-fm-boston?adjust_creative=45kqYYhpW-MD2mr1wGE7bw&utm_campaign=yelp_api_v3&utm_medium=api_v3_business_search&utm_source=45kqYYhpW-MD2mr1wGE7bw,+16173530909,3651.6535532219687,,31n_WR0O0IIJJ_3DCjHt9A,02215,Boston,MA,890 Commonwealth Ave,,,890 Commonwealth Ave,42.350547,-71.1155277,radiostations,NA,NA
communications,The David Pakman Show,https://www.yelp.com/biz/the-david-pakman-show-boston?adjust_creative=45kqYYhpW-MD2mr1wGE7bw&utm_campaign=yelp_api_v3&utm_medium=api_v3_business_search&utm_source=45kqYYhpW-MD2mr1wGE7bw,,5565.653579263792,,-RyZgaiT7aj_3zKKSZWLsA,02130,Boston,MA,,,,"Boston, MA 02130",42.31001,-71.11348,radiostations,NA,NA
communications,First Republic Bank,https://www.yelp.com/biz/first-republic-bank-boston?adjust_creative=45kqYYhpW-MD2mr1wGE7bw&utm_campaign=yelp_api_v3&utm_medium=api_v3_business_search&utm_source=45kqYYhpW-MD2mr1wGE7bw,+16178598888,805.4738899596578,,6PHFpdOmxIlII0L-h1bM-A,02199,Boston,MA,772 Boylston St,,,772 Boylston St,42.3489625167428,-71.0809265998886,banks,NA,NA
communications,Capital One Café,https://www.yelp.com/biz/capital-one-caf%C3%A9-cambridge-2?adjust_creative=45kqYYhpW-MD2mr1wGE7bw&utm_campaign=yelp_api_v3&utm_medium=api_v3_business_search&utm_source=45kqYYhpW-MD2mr1wGE7bw,+16172992669,4857.812200025365,$,KhFwuT_v61xNJv4OBseCUw,02138,Cambridge,MA,24 JFK St,,,24 JFK St,42.3728979012911,-71.1196759343147,banks,NA,NA
communications,WMBR 88.1 FM,https://www.yelp.com/biz/wmbr-88-1-fm-cambridge?adjust_creative=45kqYYhpW-MD2mr1wGE7bw&utm_campaign=yelp_api_v3&utm_medium=api_v3_business_search&utm_source=45kqYYhpW-MD2mr1wGE7bw,+16172538810,1900.9548964350709,,9MdULwol5kEHJeeeY8UnGg,02142,Cambridge,MA,142 Memorial Dr,,,142 Memorial Dr,42.3591755,-71.087723,radiostations,NA,NA
communications,Capital One Café,https://www.yelp.com/biz/capital-one-caf%C3%A9-boston-7?adjust_creative=45kqYYhpW-MD2mr1wGE7bw&utm_campaign=yelp_api_v3&utm_medium=api_v3_business_search&utm_source=45kqYYhpW-MD2mr1wGE7bw,+17813747222,2005.1577866711048,$,mbElZiWlUjTlZJHayt83JA,02210,Boston,MA,57 Seaport Blvd,,,57 Seaport Blvd,42.3526042,-71.0477093,banks,NA,NA
communications,WGBH,https://www.yelp.com/biz/wgbh-boston?adjust_creative=45kqYYhpW-MD2mr1wGE7bw&utm_campaign=yelp_api_v3&utm_medium=api_v3_business_search&utm_source=45kqYYhpW-MD2mr1wGE7bw,+16173002000,6403.546695093071,,YKo7scoP6aQ04n-nC-N3oQ,02135,Boston,MA,1 Guest St,,,1 Guest St,42.3563,-71.14867,radiostations,NA,NA
communications,WJIB Radio 740,https://www.yelp.com/biz/wjib-radio-740-cambridge?adjust_creative=45kqYYhpW-MD2mr1wGE7bw&utm_campaign=yelp_api_v3&utm_medium=api_v3_business_search&utm_source=45kqYYhpW-MD2mr1wGE7bw,+16178687400,7025.201610861044,,tYLjIRDKyJZnvCMFKAKZQw,02138,Cambridge,MA,443 Concord Ave,,,443 Concord Ave,42.38622,-71.13886,radiostations,NA,NA
communications,Leader Bank,https://www.yelp.com/biz/leader-bank-cambridge-3?adjust_creative=45kqYYhpW-MD2mr1wGE7bw&utm_campaign=yelp_api_v3&utm_medium=api_v3_business_search&utm_source=45kqYYhpW-MD2mr1wGE7bw,+16174972500,3353.5959768639987,,HgYsZRvtcFlVHbanZ_vTBQ,02139,Cambridge,MA,675 Massachusetts Ave,,,675 Massachusetts Ave,42.36582,-71.10408,banks,NA,NA
communications,Capital One Café,https://www.yelp.com/biz/capital-one-caf%C3%A9-somerville?adjust_creative=45kqYYhpW-MD2mr1wGE7bw&utm_campaign=yelp_api_v3&utm_medium=api_v3_business_search&utm_source=45kqYYhpW-MD2mr1wGE7bw,+16178633275,4939.838708155287,,dwLF6jEC5UB8hPa0r93Fxg,02145,Somerville,MA,425 Revolution Dr,,,425 Revolution Dr,42.3919606,-71.0782908,banks,NA,NA
communications,WBCN 104 FM,https://www.yelp.com/biz/wbcn-104-fm-boston?adjust_creative=45kqYYhpW-MD2mr1wGE7bw&utm_campaign=yelp_api_v3&utm_medium=api_v3_business_search&utm_source=45kqYYhpW-MD2mr1wGE7bw,+16172661111,6866.331144212619,,Rg5g9hI1I1ianDrLbDuFhw,02215,Boston,MA,Leo Birmingham Pkwy,,,Leo Birmingham Pkwy,42.35831,-71.15361,radiostations,NA,NA
communications,94.9FM ZUMIX,https://www.yelp.com/biz/94-9fm-zumix-east-boston?adjust_creative=45kqYYhpW-MD2mr1wGE7bw&utm_campaign=yelp_api_v3&utm_medium=api_v3_business_search&utm_source=45kqYYhpW-MD2mr1wGE7bw,+16175689777,3570.3531650453824,,Sg9I-fd7FZ7MS-olKiAA7Q,02128,EAST  Boston,MA,260 Sumner St,,,260 Sumner St,42.36825,-71.03768,radiostations,NA,NA
communications,First Republic Bank,https://www.yelp.com/biz/first-republic-bank-boston-2?adjust_creative=45kqYYhpW-MD2mr1wGE7bw&utm_campaign=yelp_api_v3&utm_medium=api_v3_business_search&utm_source=45kqYYhpW-MD2mr1wGE7bw,+16174785300,1437.0226380007882,,1TbQAjlCg3bVqx6xp5TBLw,02110,Boston,MA,160 Federal St,,,160 Federal St,42.3541557767308,-71.0559854693289,banks,NA,NA
communications,New England Sports Network,https://www.yelp.com/biz/new-england-sports-network-boston?adjust_creative=45kqYYhpW-MD2mr1wGE7bw&utm_campaign=yelp_api_v3&utm_medium=api_v3_business_search&utm_source=45kqYYhpW-MD2mr1wGE7bw,+16175369233,2257.97471056655,,jqeMskBSC3Vf2dgQqkMhbA,02215,Boston,MA,70 Brookline Ave,,,70 Brookline Ave,42.347193,-71.09831,televisionstations,NA,NA
communications,WZBC 90.3 FM,https://www.yelp.com/biz/wzbc-90-3-fm-chestnut-hill?adjust_creative=45kqYYhpW-MD2mr1wGE7bw&utm_campaign=yelp_api_v3&utm_medium=api_v3_business_search&utm_source=45kqYYhpW-MD2mr1wGE7bw,+16175524686,8108.983563418812,,-nXRrnPynUIAOpQWnSy9oQ,02467,Chestnut Hill,MA,Boston College,,McElroy Commons 107,Boston College,42.3317686,-71.1598742,radiostations,NA,NA
communications,Capital One Café,https://www.yelp.com/biz/capital-one-caf%C3%A9-brookline?adjust_creative=45kqYYhpW-MD2mr1wGE7bw&utm_campaign=yelp_api_v3&utm_medium=api_v3_business_search&utm_source=45kqYYhpW-MD2mr1wGE7bw,+16172786285,4168.633823808055,$,eQrKpIVeryo8_ULaROYlIA,02446,Brookline,MA,1327 Beacon St,,,1327 Beacon St,42.3418385,-71.1213116,coffee,NA,NA
communications,First Republic Bank,https://www.yelp.com/biz/first-republic-bank-boston-3?adjust_creative=45kqYYhpW-MD2mr1wGE7bw&utm_campaign=yelp_api_v3&utm_medium=api_v3_business_search&utm_source=45kqYYhpW-MD2mr1wGE7bw,+16174232888,1674.4387202771866,,H4xrMlMms-K8zZYBnNDE8w,02109,Boston,MA,1 Post Office Sq,,,1 Post Office Sq,42.35672,-71.054785,banks,NA,NA
communications,Mix 104.1 - WWBX-FM,https://www.yelp.com/biz/mix-104-1-wwbx-fm-brighton?adjust_creative=45kqYYhpW-MD2mr1wGE7bw&utm_campaign=yelp_api_v3&utm_medium=api_v3_business_search&utm_source=45kqYYhpW-MD2mr1wGE7bw,+16179311234,6460.845265637464,,-KnSXbr8lD6OamQ-QrfxdA,02135,Brighton,MA,83 Leo M Birmingham Pkwy,,,83 Leo M Birmingham Pkwy,42.3592,-71.14823,radiostations,NA,NA
communications,Hanscom Federal Credit Union,https://www.yelp.com/biz/hanscom-federal-credit-union-boston?adjust_creative=45kqYYhpW-MD2mr1wGE7bw&utm_campaign=yelp_api_v3&utm_medium=api_v3_business_search&utm_source=45kqYYhpW-MD2mr1wGE7bw,+18006564328,2456.8559707100576,,PpX18phMpCGf-wrpyv47gg,02210,Boston,MA,495 Summer St,Ste 115,,495 Summer St,42.34552,-71.04161,banks,NA,NA
communications,WBZ Newsradio 1030,https://www.yelp.com/biz/wbz-newsradio-1030-allston?adjust_creative=45kqYYhpW-MD2mr1wGE7bw&utm_campaign=yelp_api_v3&utm_medium=api_v3_business_search&utm_source=45kqYYhpW-MD2mr1wGE7bw,+16177877181,5451.804141361378,,T095tSwHhQ2mZepi8Z8qtQ,02134,Allston,MA,1170 Soldiers Field Rd,,,1170 Soldiers Field Rd,42.36508,-71.1342,radiostations,NA,NA
communications,WBQT - Hot 96.9,https://www.yelp.com/biz/wbqt-hot-96-9-boston?adjust_creative=45kqYYhpW-MD2mr1wGE7bw&utm_campaign=yelp_api_v3&utm_medium=api_v3_business_search&utm_source=45kqYYhpW-MD2mr1wGE7bw,+16178229600,3764.225974234163,,1iM3VC-3bL3-aRCZsZ5eAA,02125,Boston,MA,55 Morrissey Blvd,,,55 Morrissey Blvd,42.31751,-71.05028,radiostations,NA,NA
communications,Bank Of America,https://www.yelp.com/biz/bank-of-america-boston-27?adjust_creative=45kqYYhpW-MD2mr1wGE7bw&utm_campaign=yelp_api_v3&utm_medium=api_v3_business_search&utm_source=45kqYYhpW-MD2mr1wGE7bw,+16177135930,3120.7342359119543,,1sxbxOPgTZOWFap-mf6e4A,02120,Boston,MA,1614 Tremont St,,,1614 Tremont St,42.3337678085054,-71.1040939264411,banks,NA,NA
communications,Hanscom Federal Credit Union,https://www.yelp.com/biz/hanscom-federal-credit-union-boston-2?adjust_creative=45kqYYhpW-MD2mr1wGE7bw&utm_campaign=yelp_api_v3&utm_medium=api_v3_business_search&utm_source=45kqYYhpW-MD2mr1wGE7bw,+16175233960,1992.5477672265195,,-ylSebUM0NRBVsl_XSAG5w,02222,Boston,MA,10 Causeway St,Rm 208,,10 Causeway St,42.3644836,-71.063251,banks,NA,NA
communications,Cambridge Community Television,https://www.yelp.com/biz/cambridge-community-television-cambridge?adjust_creative=45kqYYhpW-MD2mr1wGE7bw&utm_campaign=yelp_api_v3&utm_medium=api_v3_business_search&utm_source=45kqYYhpW-MD2mr1wGE7bw,+16176616900,2983.7822743623265,,YSAZcoVQSlMBu1H8qQKDWw,02139,Cambridge,MA,438 Massachusetts Ave,,,438 Massachusetts Ave,42.3635314,-71.1008248,televisionstations,NA,NA
communications,TD Bank,https://www.yelp.com/biz/td-bank-boston-5?adjust_creative=45kqYYhpW-MD2mr1wGE7bw&utm_campaign=yelp_api_v3&utm_medium=api_v3_business_search&utm_source=45kqYYhpW-MD2mr1wGE7bw,+16172660740,486.85067740703397,,xz4H1CGOP92OBsN9MNar7Q,02116,Boston,MA,535 Boylston St,,,535 Boylston St,42.350852,-71.075569,banks,NA,NA
communications,Metro Credit Union,https://www.yelp.com/biz/metro-credit-union-boston?adjust_creative=45kqYYhpW-MD2mr1wGE7bw&utm_campaign=yelp_api_v3&utm_medium=api_v3_business_search&utm_source=45kqYYhpW-MD2mr1wGE7bw,+18776963876,2407.1129742319476,,y1HGYTF9ESPIT7P-H-byjA,02118,Boston,MA,1071 Washington St,,,1071 Washington St,42.3264325754112,-71.066907277753,banks,NA,NA
communications,Bank of America,https://www.yelp.com/biz/bank-of-america-boston-10?adjust_creative=45kqYYhpW-MD2mr1wGE7bw&utm_campaign=yelp_api_v3&utm_medium=api_v3_business_search&utm_source=45kqYYhpW-MD2mr1wGE7bw,+16174432703,1723.0066572555659,,GMQ68YR0xu8YPBvCDo7EKg,02110,Boston,MA,125 High St,,,125 High St,42.35528,-71.05309,banks,NA,NA
communications,WBOS 92.9 FM,https://www.yelp.com/biz/wbos-92-9-fm-dorchester-2?adjust_creative=45kqYYhpW-MD2mr1wGE7bw&utm_campaign=yelp_api_v3&utm_medium=api_v3_business_search&utm_source=45kqYYhpW-MD2mr1wGE7bw,+16178226338,3765.2499809119913,,iO4Od9_AKoP-qE6AaSOUBQ,02125,Dorchester,MA,55 Morrissey Blvd,,,55 Morrissey Blvd,42.317772,-71.050181,radiostations,NA,NA
communications,Metro Credit Union,https://www.yelp.com/biz/metro-credit-union-boston-2?adjust_creative=45kqYYhpW-MD2mr1wGE7bw&utm_campaign=yelp_api_v3&utm_medium=api_v3_business_search&utm_source=45kqYYhpW-MD2mr1wGE7bw,+18776963876,2665.666974246758,,R6BF6lMVa4yVa8QGnACY8g,02215,Boston,MA,922 Commonwealth Ave,,,922 Commonwealth Ave,42.346426,-71.103623,banks,NA,NA
communications,Leader Bank - East Arlington,https://www.yelp.com/biz/leader-bank-east-arlington-arlington?adjust_creative=45kqYYhpW-MD2mr1wGE7bw&utm_campaign=yelp_api_v3&utm_medium=api_v3_business_search&utm_source=45kqYYhpW-MD2mr1wGE7bw,+17816413900,8465.324667808021,,o9SMQudTWQtQJho9joc-Pg,02474,Arlington,MA,141 Massachusetts Ave,,,141 Massachusetts Ave,42.4043999,-71.1401596,banks,NA,NA
communications,Cambridge Savings Bank,https://www.yelp.com/biz/cambridge-savings-bank-cambridge-5?adjust_creative=45kqYYhpW-MD2mr1wGE7bw&utm_campaign=yelp_api_v3&utm_medium=api_v3_business_search&utm_source=45kqYYhpW-MD2mr1wGE7bw,+16174414287,3721.665408917407,,errbFfcWUoU8uvSZFbWsKw,02138,Cambridge,MA,1378 Cambridge St,,,1378 Cambridge St,42.37345,-71.10016,banks,NA,NA
communications,WHDH-TV,https://www.yelp.com/biz/whdh-tv-boston-3?adjust_creative=45kqYYhpW-MD2mr1wGE7bw&utm_campaign=yelp_api_v3&utm_medium=api_v3_business_search&utm_source=45kqYYhpW-MD2mr1wGE7bw,+16177250777,1762.3954492930716,,Ty49SlmdTD_gutKhKhR73w,02114,Boston,MA,7 Bulfinch Pl,,,7 Bulfinch Pl,42.362056,-71.061755,televisionstations,NA,NA
communications,Cambridge Trust Company,https://www.yelp.com/biz/cambridge-trust-company-boston-2?adjust_creative=45kqYYhpW-MD2mr1wGE7bw&utm_campaign=yelp_api_v3&utm_medium=api_v3_business_search&utm_source=45kqYYhpW-MD2mr1wGE7bw,+16175233551,964.5824299019594,,vvE3hws24XvLN6B6DVmQjA,02108,Boston,MA,65 Beacon St,,,65 Beacon St,42.3563823,-71.0691873,banks,NA,NA
communications,OneUnited Bank,https://www.yelp.com/biz/oneunited-bank-boston?adjust_creative=45kqYYhpW-MD2mr1wGE7bw&utm_campaign=yelp_api_v3&utm_medium=api_v3_business_search&utm_source=45kqYYhpW-MD2mr1wGE7bw,+16174574400,1413.9210447721043,,MQTF8C-3xd5tcTAwPPXZyQ,02110,Boston,MA,100 Franklin St,Ste 600,,100 Franklin St,42.35555,-71.05754,banks,NA,NA
communications,Bank of America,https://www.yelp.com/biz/bank-of-america-boston-28?adjust_creative=45kqYYhpW-MD2mr1wGE7bw&utm_campaign=yelp_api_v3&utm_medium=api_v3_business_search&utm_source=45kqYYhpW-MD2mr1wGE7bw,+18004321000,440.71836367686984,,591SCEGC4K4RaYMxewzQmA,02116,Boston,MA,557 Tremont St,,,557 Tremont St,42.343929,-71.072099,banks,NA,NA
communications,Magic 106.7 Wmjx-Fm,https://www.yelp.com/biz/magic-106-7-wmjx-fm-dorchester-2?adjust_creative=45kqYYhpW-MD2mr1wGE7bw&utm_campaign=yelp_api_v3&utm_medium=api_v3_business_search&utm_source=45kqYYhpW-MD2mr1wGE7bw,+16178226559,3763.342236485992,,nF_trykyAd2RoTrv3ZPzdQ,02125,Dorchester,MA,55 Willim T Mrrssy Blvd,,,55 Willim T Mrrssy Blvd,42.317768,-71.050242,radiostations,NA,NA
communications,Boston Private,https://www.yelp.com/biz/boston-private-boston-2?adjust_creative=45kqYYhpW-MD2mr1wGE7bw&utm_campaign=yelp_api_v3&utm_medium=api_v3_business_search&utm_source=45kqYYhpW-MD2mr1wGE7bw,+16176464880,2346.6648564778234,,YvCgbHbeThcdytVLTkSySA,02210,Boston,MA,157 Seaport Blvd,,,157 Seaport Blvd,42.35019,-71.0425052,banks,NA,NA
communications,Cambridge Trust Company,https://www.yelp.com/biz/cambridge-trust-company-cambridge-6?adjust_creative=45kqYYhpW-MD2mr1wGE7bw&utm_campaign=yelp_api_v3&utm_medium=api_v3_business_search&utm_source=45kqYYhpW-MD2mr1wGE7bw,+16178765500,4770.168959499542,,ADiQ5o8IzeHfByZRDdur3A,02138,Cambridge,MA,1336 Massachusetts Ave,,,1336 Massachusetts Ave,42.373042,-71.118227,banks,NA,NA
communications,MIT Federal Credit Union,https://www.yelp.com/biz/mit-federal-credit-union-cambridge?adjust_creative=45kqYYhpW-MD2mr1wGE7bw&utm_campaign=yelp_api_v3&utm_medium=api_v3_business_search&utm_source=45kqYYhpW-MD2mr1wGE7bw,+16172532845,2528.43685444379,,0cHeKRiDS9g5z74lOhJhLQ,02139,Cambridge,MA,700 Technology Sq,,,700 Technology Sq,42.363979,-71.092922,banks,NA,NA
communications,TD Bank,https://www.yelp.com/biz/td-bank-boston-2?adjust_creative=45kqYYhpW-MD2mr1wGE7bw&utm_campaign=yelp_api_v3&utm_medium=api_v3_business_search&utm_source=45kqYYhpW-MD2mr1wGE7bw,+16174264591,1185.8577733912518,,zQZiOcHY_iPgzc-BSuu8Jg,02111,Boston,MA,24 Winter St,,,24 Winter St,42.3723,-71.08069,banks,NA,NA
communications,Cambridge Savings Bank,https://www.yelp.com/biz/cambridge-savings-bank-cambridge-11?adjust_creative=45kqYYhpW-MD2mr1wGE7bw&utm_campaign=yelp_api_v3&utm_medium=api_v3_business_search&utm_source=45kqYYhpW-MD2mr1wGE7bw,+16174414270,6055.108782742466,,Ad44p1DqjO_G1aSvuMyJLA,02140,Cambridge,MA,53 White St,,,53 White St,42.3901083255105,-71.1177156778421,banks,NA,NA
communications,WZLX-Fm Classic Rock,https://www.yelp.com/biz/wzlx-fm-classic-rock-medford?adjust_creative=45kqYYhpW-MD2mr1wGE7bw&utm_campaign=yelp_api_v3&utm_medium=api_v3_business_search&utm_source=45kqYYhpW-MD2mr1wGE7bw,+16177465100,6410.975792630554,,ZvL1k63dw0foz_XfX6FLEQ,02155,Medford,MA,1 Cabot Rd,,,1 Cabot Rd,42.405431,-71.074978,radiostations,NA,NA
communications,Bank of America,https://www.yelp.com/biz/bank-of-america-brookline?adjust_creative=45kqYYhpW-MD2mr1wGE7bw&utm_campaign=yelp_api_v3&utm_medium=api_v3_business_search&utm_source=45kqYYhpW-MD2mr1wGE7bw,+18008414000,4138.01417297795,,OAnzZcFXdeY5-NeXEwDUgQ,02446,Brookline,MA,1319 Beacon St,,,1319 Beacon St,42.3417320251465,-71.1208267211914,banks,NA,NA
communications,Bank of America,https://www.yelp.com/biz/bank-of-america-cambridge-5?adjust_creative=45kqYYhpW-MD2mr1wGE7bw&utm_campaign=yelp_api_v3&utm_medium=api_v3_business_search&utm_source=45kqYYhpW-MD2mr1wGE7bw,+18004321000,1921.0637319661041,,BErWlt2brcJiSyHichIKqA,02142,Cambridge,MA,226 Main St,,,226 Main St,42.3621339328675,-71.0843778705343,banks,NA,NA
communications,Cambridge Trust Company,https://www.yelp.com/biz/cambridge-trust-company-cambridge-5?adjust_creative=45kqYYhpW-MD2mr1wGE7bw&utm_campaign=yelp_api_v3&utm_medium=api_v3_business_search&utm_source=45kqYYhpW-MD2mr1wGE7bw,+16176610398,5655.792696307622,,nB-A18O69shLAvHEGlpi7A,02138,Cambridge,MA,1720 Massachusetts Ave,,,1720 Massachusetts Ave,42.3839263916016,-71.1199035644531,banks,NA,NA
communications,Leader Bank,https://www.yelp.com/biz/leader-bank-boston-2?adjust_creative=45kqYYhpW-MD2mr1wGE7bw&utm_campaign=yelp_api_v3&utm_medium=api_v3_business_search&utm_source=45kqYYhpW-MD2mr1wGE7bw,+16172616300,2113.44347390108,,JsqS4rf4npkxB7JI7SpozQ,02210,Boston,MA,48 Northern Ave,,,48 Northern Ave,42.3529587686062,-71.0457193851471,banks,NA,NA
communications,TD Bank,https://www.yelp.com/biz/td-bank-allston?adjust_creative=45kqYYhpW-MD2mr1wGE7bw&utm_campaign=yelp_api_v3&utm_medium=api_v3_business_search&utm_source=45kqYYhpW-MD2mr1wGE7bw,+16172323628,4909.006679124065,,VHbbQCX6RD5lR2M89hdHqg,02134,Allston,MA,1228-1230 Commonwealth Ave,,,1228-1230 Commonwealth Ave,42.3498306,-71.1308899,banks,NA,NA
communications,People's United Bank,https://www.yelp.com/biz/peoples-united-bank-boston?adjust_creative=45kqYYhpW-MD2mr1wGE7bw&utm_campaign=yelp_api_v3&utm_medium=api_v3_business_search&utm_source=45kqYYhpW-MD2mr1wGE7bw,+16175361604,922.0106197855553,,y2ynh4tPBakCgIof4eo5pA,02199,Boston,MA,800 Boylston St,Ste 181,,800 Boylston St,42.348493,-71.082428,banks,NA,NA
communications,Citizens Bank,https://www.yelp.com/biz/citizens-bank-boston-5?adjust_creative=45kqYYhpW-MD2mr1wGE7bw&utm_campaign=yelp_api_v3&utm_medium=api_v3_business_search&utm_source=45kqYYhpW-MD2mr1wGE7bw,+16172470782,561.1343959920221,,iWR5WvsnAyPNRRQ6yl4ISw,02116,Boston,MA,607 Boylston St,Ste 1,,607 Boylston St,42.35043,-71.07724,banks,NA,NA
communications,Bank of America,https://www.yelp.com/biz/bank-of-america-boston-3?adjust_creative=45kqYYhpW-MD2mr1wGE7bw&utm_campaign=yelp_api_v3&utm_medium=api_v3_business_search&utm_source=45kqYYhpW-MD2mr1wGE7bw,+18008414000,1754.1485309017262,,YTt3Vutktoq_dvohAnu69g,02109,Boston,MA,60 State St,,,60 State St,42.3593837,-71.0566913,banks,NA,NA
communications,East Cambridge Savings Bank,https://www.yelp.com/biz/east-cambridge-savings-bank-cambridge-12?adjust_creative=45kqYYhpW-MD2mr1wGE7bw&utm_campaign=yelp_api_v3&utm_medium=api_v3_business_search&utm_source=45kqYYhpW-MD2mr1wGE7bw,+16175512513,6458.001036186251,,YeGVeum_E8RoPvrKCuf2ng,02140,Cambridge,MA,2067 Massachusetts Ave,,,2067 Massachusetts Ave,42.3914748,-71.1231247,banks,NA,NA
communications,Brookline Bank,https://www.yelp.com/biz/brookline-bank-brookline-2?adjust_creative=45kqYYhpW-MD2mr1wGE7bw&utm_campaign=yelp_api_v3&utm_medium=api_v3_business_search&utm_source=45kqYYhpW-MD2mr1wGE7bw,+16177303589,2996.6102585335916,,y5lRsWafe_ZaQF7Axh3dRg,02445,Brookline,MA,1016 Beacon St,,,1016 Beacon St,42.346264,-71.107644,banks,NA,NA
communications,Radius Bank,https://www.yelp.com/biz/radius-bank-boston-2?adjust_creative=45kqYYhpW-MD2mr1wGE7bw&utm_campaign=yelp_api_v3&utm_medium=api_v3_business_search&utm_source=45kqYYhpW-MD2mr1wGE7bw,+18002420272,2852.5699924760934,,XuK-EX3ciVNpDpMLL3_z_A,02210,Boston,MA,One Harbor St,,,One Harbor St,42.3448092,-71.0367765,banks,NA,NA
communications,Mass Bay Credit Union,https://www.yelp.com/biz/mass-bay-credit-union-south-boston?adjust_creative=45kqYYhpW-MD2mr1wGE7bw&utm_campaign=yelp_api_v3&utm_medium=api_v3_business_search&utm_source=45kqYYhpW-MD2mr1wGE7bw,+16172692700,1509.8441353333635,,3YODx-P8S-OeubN8onwtlQ,02127,South Boston,MA,147 W 4th St,,,147 W 4th St,42.3404755,-71.0558104,banks,NA,NA
communications,Cambridge Savings Bank,https://www.yelp.com/biz/cambridge-savings-bank-cambridge-8?adjust_creative=45kqYYhpW-MD2mr1wGE7bw&utm_campaign=yelp_api_v3&utm_medium=api_v3_business_search&utm_source=45kqYYhpW-MD2mr1wGE7bw,+16174414298,3295.823055014383,,iMGgLz6kXpGbtGMen82TQg,02139,Cambridge,MA,630 Massachusetts Ave,,,630 Massachusetts Ave,42.3651704,-71.1035901,banks,NA,NA
communications,Eastern Bank,https://www.yelp.com/biz/eastern-bank-boston-7?adjust_creative=45kqYYhpW-MD2mr1wGE7bw&utm_campaign=yelp_api_v3&utm_medium=api_v3_business_search&utm_source=45kqYYhpW-MD2mr1wGE7bw,+16175260170,1343.2664131066886,,j8CDZViNqxYgenFNgxGFXw,02110,Boston,MA,63 Franklin Street,,,63 Franklin Street,42.3554756,-71.0585745,banks,NA,NA
communications,Bank of America,https://www.yelp.com/biz/bank-of-america-boston-17?adjust_creative=45kqYYhpW-MD2mr1wGE7bw&utm_campaign=yelp_api_v3&utm_medium=api_v3_business_search&utm_source=45kqYYhpW-MD2mr1wGE7bw,+16177234260,1596.8462937604554,,T6T1zUP-QmjtESipZfpyyg,02114,Boston,MA,161 Cambridge St,,,161 Cambridge St,42.3612944036722,-71.064879745245,banks,NA,NA
communications,Kiss 108 Radio,https://www.yelp.com/biz/kiss-108-radio-medford?adjust_creative=45kqYYhpW-MD2mr1wGE7bw&utm_campaign=yelp_api_v3&utm_medium=api_v3_business_search&utm_source=45kqYYhpW-MD2mr1wGE7bw,+17816632500,6409.109469370122,,c8IwPJBchDOu4X4Bu-2K4g,02155,Medford,MA,1 Cabot Rd,Ste 320,,1 Cabot Rd,42.40541,-71.07455,radiostations,NA,NA
communications,Bank of America,https://www.yelp.com/biz/bank-of-america-boston-32?adjust_creative=45kqYYhpW-MD2mr1wGE7bw&utm_campaign=yelp_api_v3&utm_medium=api_v3_business_search&utm_source=45kqYYhpW-MD2mr1wGE7bw,+16173613985,11022.27874581642,,DmfMFbJm0k8qntn3Dmf-aQ,02136,Boston,MA,1219 River St,,,1219 River St,42.2562172307718,-71.1223881732795,banks,NA,NA
communications,Bank Of America,https://www.yelp.com/biz/bank-of-america-boston?adjust_creative=45kqYYhpW-MD2mr1wGE7bw&utm_campaign=yelp_api_v3&utm_medium=api_v3_business_search&utm_source=45kqYYhpW-MD2mr1wGE7bw,+18008414000,1369.7284714919817,,3pGrPMWXSTKJgq1wEmb30w,02116,Boston,MA,133 Massachusetts Ave,,,133 Massachusetts Ave,42.347049,-71.0877892,banks,NA,NA
communications,Citizens Bank,https://www.yelp.com/biz/citizens-bank-boston-23?adjust_creative=45kqYYhpW-MD2mr1wGE7bw&utm_campaign=yelp_api_v3&utm_medium=api_v3_business_search&utm_source=45kqYYhpW-MD2mr1wGE7bw,+16174228383,1255.9886897327153,,nIMt9GjRim4BFt5sjUgwQQ,02110,Boston,MA,40 Summer St,,,40 Summer St,42.3547172546387,-71.0591125488281,banks,NA,NA
communications,Watertown Savings Bank,https://www.yelp.com/biz/watertown-savings-bank-watertown-3?adjust_creative=45kqYYhpW-MD2mr1wGE7bw&utm_campaign=yelp_api_v3&utm_medium=api_v3_business_search&utm_source=45kqYYhpW-MD2mr1wGE7bw,+16179289000,7536.17033897662,,YoMEJ9KYPS8GyWXRz2ncsA,02472,Watertown,MA,10 Bigelow Ave,,,10 Bigelow Ave,42.37065,-71.15752,banks,NA,NA
communications,Citizens Bank,https://www.yelp.com/biz/citizens-bank-boston-14?adjust_creative=45kqYYhpW-MD2mr1wGE7bw&utm_campaign=yelp_api_v3&utm_medium=api_v3_business_search&utm_source=45kqYYhpW-MD2mr1wGE7bw,+16174228295,1399.0961960170912,,lpq5DeNG5_sETt31ZM2lEw,02108,Boston,MA,73 Tremont St,,,73 Tremont St,42.357928,-71.0607277,banks,NA,NA
communications,Chase Bank,https://www.yelp.com/biz/chase-bank-boston-3?adjust_creative=45kqYYhpW-MD2mr1wGE7bw&utm_campaign=yelp_api_v3&utm_medium=api_v3_business_search&utm_source=45kqYYhpW-MD2mr1wGE7bw,+18574093920,887.7449120425998,,vfosnVgf9yjB5vFPYvcLGg,02199,Boston,MA,800 Boylston St,Spc 101,,800 Boylston St,42.347305,-71.081905,banks,NA,NA
communications,Webster Bank,https://www.yelp.com/biz/webster-bank-boston?adjust_creative=45kqYYhpW-MD2mr1wGE7bw&utm_campaign=yelp_api_v3&utm_medium=api_v3_business_search&utm_source=45kqYYhpW-MD2mr1wGE7bw,+16177176860,1413.574470255072,,aaojZNaGq1WlxXDarKRKjg,02110,Boston,MA,100 Franklin St,,,100 Franklin St,42.3555449,-71.0575453,banks,NA,NA
communications,Commonwealth Bank,https://www.yelp.com/biz/commonwealth-bank-boston-2?adjust_creative=45kqYYhpW-MD2mr1wGE7bw&utm_campaign=yelp_api_v3&utm_medium=api_v3_business_search&utm_source=45kqYYhpW-MD2mr1wGE7bw,+16172272298,1617.6240212232562,,FYsmrhnKyhtLTFPEUKmqtg,02108,Boston,MA,25 Court St,,,25 Court St,42.3590064,-71.0586229,banks,NA,NA
communications,TD Bank,https://www.yelp.com/biz/td-bank-boston-4?adjust_creative=45kqYYhpW-MD2mr1wGE7bw&utm_campaign=yelp_api_v3&utm_medium=api_v3_business_search&utm_source=45kqYYhpW-MD2mr1wGE7bw,+16172049562,1585.1335535128046,,qEN2saqknesZKMBCeZAbZg,02110,Boston,MA,185 Franklin St,,,185 Franklin St,42.355761,-71.055204,banks,NA,NA
communications,Bank of America,https://www.yelp.com/biz/bank-of-america-boston-16?adjust_creative=45kqYYhpW-MD2mr1wGE7bw&utm_campaign=yelp_api_v3&utm_medium=api_v3_business_search&utm_source=45kqYYhpW-MD2mr1wGE7bw,+16178973100,1683.7915648327898,,5v9LJjhVNAeAmDTr55Ro1w,02110,Boston,MA,225 Franklin St,,,225 Franklin St,42.3561821,-71.0543289,banks,NA,NA
communications,Td Banknorth,https://www.yelp.com/biz/td-banknorth-boston?adjust_creative=45kqYYhpW-MD2mr1wGE7bw&utm_campaign=yelp_api_v3&utm_medium=api_v3_business_search&utm_source=45kqYYhpW-MD2mr1wGE7bw,+16174264840,1427.8065387497506,,37QEJVPkI0Bi2m6tOD0Ndw,02110,Boston,MA,75 Federal St,,,75 Federal St,42.3552,-71.05702,banks,NA,NA
communications,Eastern Bank,https://www.yelp.com/biz/eastern-bank-watertown?adjust_creative=45kqYYhpW-MD2mr1wGE7bw&utm_campaign=yelp_api_v3&utm_medium=api_v3_business_search&utm_source=45kqYYhpW-MD2mr1wGE7bw,+16179267588,9612.429951099419,,811o6oXXazzmYt5oTucm4Q,02472,Watertown,MA,1 Church Street,Watertown Square,,1 Church Street,42.366635,-71.18543,banks,NA,NA
communications,Century Bank,https://www.yelp.com/biz/century-bank-brookline?adjust_creative=45kqYYhpW-MD2mr1wGE7bw&utm_campaign=yelp_api_v3&utm_medium=api_v3_business_search&utm_source=45kqYYhpW-MD2mr1wGE7bw,+16177341890,4302.411210791081,,8N2lUBLFJlIccVABeCRvGw,02446,Brookline,MA,1354 Beacon St,,,1354 Beacon St,42.3417993,-71.1229516,banks,NA,NA
communications,Bank Of America,https://www.yelp.com/biz/bank-of-america-boston-26?adjust_creative=45kqYYhpW-MD2mr1wGE7bw&utm_campaign=yelp_api_v3&utm_medium=api_v3_business_search&utm_source=45kqYYhpW-MD2mr1wGE7bw,+16172681936,2438.813413478517,,uOOO3Dz5doI72p8YwoS0aQ,02127,Boston,MA,460 W Broadway,,,460 W Broadway,42.33618,-71.04613,banks,NA,NA
communications,Cambridge Savings Bank,https://www.yelp.com/biz/cambridge-savings-bank-arlington-2?adjust_creative=45kqYYhpW-MD2mr1wGE7bw&utm_campaign=yelp_api_v3&utm_medium=api_v3_business_search&utm_source=45kqYYhpW-MD2mr1wGE7bw,+16174414204,10068.031504013117,,xpnI0dknFaX7TvH1ZO2F0g,02476,Arlington,MA,626 Massachusetts Ave,,,626 Massachusetts Ave,42.415242760553,-71.1530918926257,banks,NA,NA
communications,Eastern Bank,https://www.yelp.com/biz/eastern-bank-boston-2?adjust_creative=45kqYYhpW-MD2mr1wGE7bw&utm_campaign=yelp_api_v3&utm_medium=api_v3_business_search&utm_source=45kqYYhpW-MD2mr1wGE7bw,+16178971100,1757.281158443744,,B7c8DC2uh9cQpZEoxJT-3A,02110,Boston,MA,265 Franklin Street,,,265 Franklin Street,42.35652,-71.05335,banks,NA,NA
communications,WUNR 1600 AM,https://www.yelp.com/biz/wunr-1600-am-boston?adjust_creative=45kqYYhpW-MD2mr1wGE7bw&utm_campaign=yelp_api_v3&utm_medium=api_v3_business_search&utm_source=45kqYYhpW-MD2mr1wGE7bw,+16173679003,1133.7011968872634,,_K6xVaMKmM-tUMaNVwruQQ,02111,Boston,MA,60 Temple Pl,,Fl/2,60 Temple Pl,42.3551642149687,-71.0618729889393,radiostations,NA,NA
communications,Charles Schwab,https://www.yelp.com/biz/charles-schwab-boston?adjust_creative=45kqYYhpW-MD2mr1wGE7bw&utm_campaign=yelp_api_v3&utm_medium=api_v3_business_search&utm_source=45kqYYhpW-MD2mr1wGE7bw,+16172107400,1537.4471935365882,,NG70TNrsXVM7cwNifDJq4Q,02110,Boston,MA,127 Congress St,Fl 01,,127 Congress St,42.3561229,-71.0562585,investing,NA,NA
communications,Hanscom Federal Credit Union,https://www.yelp.com/biz/hanscom-federal-credit-union-boston-4?adjust_creative=45kqYYhpW-MD2mr1wGE7bw&utm_campaign=yelp_api_v3&utm_medium=api_v3_business_search&utm_source=45kqYYhpW-MD2mr1wGE7bw,+16174124869,1574.132186994165,,98S-ImSoEXA1lirQU1xB9w,02109,Boston,MA,5 Post Office Sq,Ste 340,,5 Post Office Sq,42.35718,-71.05687,banks,NA,NA
communications,Citizens Bank,https://www.yelp.com/biz/citizens-bank-boston-2?adjust_creative=45kqYYhpW-MD2mr1wGE7bw&utm_campaign=yelp_api_v3&utm_medium=api_v3_business_search&utm_source=45kqYYhpW-MD2mr1wGE7bw,+16174228416,2285.1678834875665,,7D19KbwAhEpyoZEVwHLaqg,02113,Boston,MA,315 Hanover St,,,315 Hanover St,42.36396,-71.05402,banks,NA,NA
communications,WHRB 95.3 FM,https://www.yelp.com/biz/whrb-95-3-fm-cambridge?adjust_creative=45kqYYhpW-MD2mr1wGE7bw&utm_campaign=yelp_api_v3&utm_medium=api_v3_business_search&utm_source=45kqYYhpW-MD2mr1wGE7bw,+16174954818,4411.140657205064,,E89PBFl-wDAznVfsHv663A,02138,Cambridge,MA,389 Harvard St,,,389 Harvard St,42.37215,-71.11365,radiostations,NA,NA
communications,WROR 105.7 Fm,https://www.yelp.com/biz/wror-105-7-fm-dorchester-2?adjust_creative=45kqYYhpW-MD2mr1wGE7bw&utm_campaign=yelp_api_v3&utm_medium=api_v3_business_search&utm_source=45kqYYhpW-MD2mr1wGE7bw,+16178229600,3765.744934978474,,DYBSwhsqnKB2ARVyf2R4ag,02125,Dorchester,MA,55 William T Morrissey,,,55 William T Morrissey,42.317785,-71.050134,radiostations,NA,NA
communications,WRBB 104.9FM,https://www.yelp.com/biz/wrbb-104-9fm-boston?adjust_creative=45kqYYhpW-MD2mr1wGE7bw&utm_campaign=yelp_api_v3&utm_medium=api_v3_business_search&utm_source=45kqYYhpW-MD2mr1wGE7bw,+16173732658,1646.3809725613485,,re_xZ5BO5WU40ZAzNL_4ag,02115,Boston,MA,360 Huntington Ave,,Northeastern University,360 Huntington Ave,42.3391198662888,-71.0874311306914,radiostations,NA,NA
communications,"Mortgage Network, Inc.",https://www.yelp.com/biz/mortgage-network-inc-boston-5?adjust_creative=45kqYYhpW-MD2mr1wGE7bw&utm_campaign=yelp_api_v3&utm_medium=api_v3_business_search&utm_source=45kqYYhpW-MD2mr1wGE7bw,+16175310406,1803.4022477073097,,0r4mcW39E5U5-lHo3eb8pw,02110,Boston,MA,184 High St,Ste 702,,184 High St,42.35667,-71.05256,mortgagebrokers,NA,NA
communications,Radio BDC,https://www.yelp.com/biz/radio-bdc-boston?adjust_creative=45kqYYhpW-MD2mr1wGE7bw&utm_campaign=yelp_api_v3&utm_medium=api_v3_business_search&utm_source=45kqYYhpW-MD2mr1wGE7bw,,1813.9592051409704,,ABw9azhZgZkE5_jhQrVojQ,02210,Boston,MA,320 Congress St,,,320 Congress St,42.3513412,-71.04953,radiostations,NA,NA
communications,Chase Bank,https://www.yelp.com/biz/chase-bank-brookline?adjust_creative=45kqYYhpW-MD2mr1wGE7bw&utm_campaign=yelp_api_v3&utm_medium=api_v3_business_search&utm_source=45kqYYhpW-MD2mr1wGE7bw,+16174876040,4301.986460256507,,IxrzCRIg5skBMBF1s4jRlg,02446,Brookline,MA,1364 Beacon St,,,1364 Beacon St,42.3419011,-71.122968,banks,NA,NA
communications,Eastern Bank,https://www.yelp.com/biz/eastern-bank-somerville?adjust_creative=45kqYYhpW-MD2mr1wGE7bw&utm_campaign=yelp_api_v3&utm_medium=api_v3_business_search&utm_source=45kqYYhpW-MD2mr1wGE7bw,+16176289700,6743.804197901024,,mUvhhpPyX-Boa1fwWNCtLg,02144,Somerville,MA,250 Elm Street,Davis Square,,250 Elm Street,42.3954288,-71.1221157,banks,NA,NA
communications,Cambridge Savings Bank,https://www.yelp.com/biz/cambridge-savings-bank-boston-2?adjust_creative=45kqYYhpW-MD2mr1wGE7bw&utm_campaign=yelp_api_v3&utm_medium=api_v3_business_search&utm_source=45kqYYhpW-MD2mr1wGE7bw,+16173985700,3119.4466514610353,,MjMpiFFlmEUPXLGRfgJvEA,02129,Boston,MA,1 Thompson Square,,Thompson Square,1 Thompson Square,42.3755289,-71.0642219,banks,NA,NA
communications,Key Credit Repair,https://www.yelp.com/biz/key-credit-repair-boston-8?adjust_creative=45kqYYhpW-MD2mr1wGE7bw&utm_campaign=yelp_api_v3&utm_medium=api_v3_business_search&utm_source=45kqYYhpW-MD2mr1wGE7bw,+15072347891,7226.925300565438,,8eFLrPGFkIuC7PY37OioaQ,02126,Boston,MA,686 Morton St,Ste 2,,686 Morton St,42.284787,-71.092551,banks,NA,NA
communications,East Boston Savings Bank,https://www.yelp.com/biz/east-boston-savings-bank-boston-6?adjust_creative=45kqYYhpW-MD2mr1wGE7bw&utm_campaign=yelp_api_v3&utm_medium=api_v3_business_search&utm_source=45kqYYhpW-MD2mr1wGE7bw,+18006573272,939.4063210124682,,Qi6VGP-93CaWodgv-w6jTA,02111,Boston,MA,95 Kneeland St,,,95 Kneeland St,42.3500579,-71.05999,banks,NA,NA
communications,JAM'N 94.5,https://www.yelp.com/biz/jamn-94-5-medford?adjust_creative=45kqYYhpW-MD2mr1wGE7bw&utm_campaign=yelp_api_v3&utm_medium=api_v3_business_search&utm_source=45kqYYhpW-MD2mr1wGE7bw,+16179311945,6409.109469370122,,DgkxmLjLwTuE3piww-KqxQ,02155,Medford,MA,1 Cabot Rd,Ste 320,,1 Cabot Rd,42.40541,-71.07455,radiostations,NA,NA
communications,98.5 The Sports Hub,https://www.yelp.com/biz/98-5-the-sports-hub-boston?adjust_creative=45kqYYhpW-MD2mr1wGE7bw&utm_campaign=yelp_api_v3&utm_medium=api_v3_business_search&utm_source=45kqYYhpW-MD2mr1wGE7bw,+16177790985,6452.064147935077,,qszcukR04LtJxTFjm0ZQGA,02135,Boston,MA,83 Leo Birmingham Pkwy,,,83 Leo Birmingham Pkwy,42.3592071533203,-71.1482391357422,radiostations,NA,NA
communications,Bank of America,https://www.yelp.com/biz/bank-of-america-somerville?adjust_creative=45kqYYhpW-MD2mr1wGE7bw&utm_campaign=yelp_api_v3&utm_medium=api_v3_business_search&utm_source=45kqYYhpW-MD2mr1wGE7bw,+16176660405,6741.460498032252,,L-TOutABA_YxNWFTY6rjbw,02144,Somerville,MA,406 Highland Ave,,,406 Highland Ave,42.3958192,-71.1211153,banks,NA,NA
communications,WEEI AM 850 Sports Radio,https://www.yelp.com/biz/weei-am-850-sports-radio-brighton?adjust_creative=45kqYYhpW-MD2mr1wGE7bw&utm_campaign=yelp_api_v3&utm_medium=api_v3_business_search&utm_source=45kqYYhpW-MD2mr1wGE7bw,+16173750850,6263.890695021089,,YCw06pHHvpdAXdsJC4Engw,02135,Brighton,MA,20 Guest St,,,20 Guest St,42.3574905,-71.1477585,radiostations,NA,NA
communications,Harvard University Employees Credit Union,https://www.yelp.com/biz/harvard-university-employees-credit-union-cambridge-3?adjust_creative=45kqYYhpW-MD2mr1wGE7bw&utm_campaign=yelp_api_v3&utm_medium=api_v3_business_search&utm_source=45kqYYhpW-MD2mr1wGE7bw,+16174954460,4953.025794530316,,fr4JzQSr9aNz4dLgrrFTZQ,02138,Cambridge,MA,104 Mount Auburn St,,,104 Mount Auburn St,42.37278,-71.12107,banks,NA,NA
communications,Quincy Credit Union,https://www.yelp.com/biz/quincy-credit-union-quincy?adjust_creative=45kqYYhpW-MD2mr1wGE7bw&utm_campaign=yelp_api_v3&utm_medium=api_v3_business_search&utm_source=45kqYYhpW-MD2mr1wGE7bw,+16174795558,13144.92590864882,,2ILEQ3kArdgEHMCroKoCHg,02169,Quincy,MA,100 Quincy Avenue,,,100 Quincy Avenue,42.243068,-70.9961769,banks,NA,NA
communications,Chase Bank,https://www.yelp.com/biz/chase-bank-boston-2?adjust_creative=45kqYYhpW-MD2mr1wGE7bw&utm_campaign=yelp_api_v3&utm_medium=api_v3_business_search&utm_source=45kqYYhpW-MD2mr1wGE7bw,+16176462730,1251.3023989990936,,hogcYsowQqnqIUjUMf1xnA,02108,Boston,MA,425 Washington St,,,425 Washington St,42.35565,-71.06056,banks,NA,NA
communications,Bank of America,https://www.yelp.com/biz/bank-of-america-boston-7?adjust_creative=45kqYYhpW-MD2mr1wGE7bw&utm_campaign=yelp_api_v3&utm_medium=api_v3_business_search&utm_source=45kqYYhpW-MD2mr1wGE7bw,+18008414000,2209.4670112907543,,zuIx9YxFp-gBKz-9M6XKlA,02113,Boston,MA,260 Hanover St,,,260 Hanover St,42.3636351,-71.0548825,banks,NA,NA
communications,WUMB Radio 91.9 FM,https://www.yelp.com/biz/wumb-radio-91-9-fm-dorchester?adjust_creative=45kqYYhpW-MD2mr1wGE7bw&utm_campaign=yelp_api_v3&utm_medium=api_v3_business_search&utm_source=45kqYYhpW-MD2mr1wGE7bw,+16172876900,4631.505945996629,,CmomfNH8ZkMdT0nD_xtdtw,02125,Dorchester,MA,100 William T Morrissey Blvd,,,100 William T Morrissey Blvd,42.313342,-71.039674,radiostations,NA,NA
communications,Bank of America,https://www.yelp.com/biz/bank-of-america-boston-20?adjust_creative=45kqYYhpW-MD2mr1wGE7bw&utm_campaign=yelp_api_v3&utm_medium=api_v3_business_search&utm_source=45kqYYhpW-MD2mr1wGE7bw,+16175366985,970.491558665881,,RjREJ1z4GNanJ_9SGCsr1A,02116,Boston,MA,855 Boylston St,,,855 Boylston St,42.34881,-71.0831199,banks,NA,NA
communications,East Cambridge Savings Bank,https://www.yelp.com/biz/east-cambridge-savings-bank-cambridge-14?adjust_creative=45kqYYhpW-MD2mr1wGE7bw&utm_campaign=yelp_api_v3&utm_medium=api_v3_business_search&utm_source=45kqYYhpW-MD2mr1wGE7bw,+16175512450,2687.9331301832854,,8jAuGCUiLS0_dW_GuwZm-A,02141,Cambridge,MA,292 Cambridge St,,,292 Cambridge St,42.3709353,-71.0809105,banks,NA,NA
communications,Watertown Savings Bank,https://www.yelp.com/biz/watertown-savings-bank-watertown-2?adjust_creative=45kqYYhpW-MD2mr1wGE7bw&utm_campaign=yelp_api_v3&utm_medium=api_v3_business_search&utm_source=45kqYYhpW-MD2mr1wGE7bw,+16179289000,9666.242620154077,,BrsKKWJtm1ex6UcZyfQLWA,02472,Watertown,MA,60 Main St,,,60 Main St,42.3662073,-71.1862271,banks,NA,NA
communications,Sovereign Bank,https://www.yelp.com/biz/sovereign-bank-boston-10?adjust_creative=45kqYYhpW-MD2mr1wGE7bw&utm_campaign=yelp_api_v3&utm_medium=api_v3_business_search&utm_source=45kqYYhpW-MD2mr1wGE7bw,+16172620457,540.84593420067,,cqZ6lnRGGM-y49JJ8VpsbQ,02116,Boston,MA,575 Boylston St,,,575 Boylston St,42.350615,-71.07665,banks,NA,NA
communications,East Boston Savings Bank,https://www.yelp.com/biz/east-boston-savings-bank-dorchester?adjust_creative=45kqYYhpW-MD2mr1wGE7bw&utm_campaign=yelp_api_v3&utm_medium=api_v3_business_search&utm_source=45kqYYhpW-MD2mr1wGE7bw,+18006573272,8252.011887163593,,y26bjYoYgJRNWvrY_WKmRQ,02124,Dorchester,MA,2250 Dorchester Ave,,,2250 Dorchester Ave,42.27366,-71.06742,banks,NA,NA
communications,Cambridge Trust Company,https://www.yelp.com/biz/cambridge-trust-company-cambridge-3?adjust_creative=45kqYYhpW-MD2mr1wGE7bw&utm_campaign=yelp_api_v3&utm_medium=api_v3_business_search&utm_source=45kqYYhpW-MD2mr1wGE7bw,+16175034021,6652.296050443235,,e3_MthkD2U794fpu3PN18A,02138,Cambridge,MA,353 Huron Ave,,,353 Huron Ave,42.38146,-71.13831,banks,NA,NA
communications,USALLIANCE Financial,https://www.yelp.com/biz/usalliance-financial-cambridge?adjust_creative=45kqYYhpW-MD2mr1wGE7bw&utm_campaign=yelp_api_v3&utm_medium=api_v3_business_search&utm_source=45kqYYhpW-MD2mr1wGE7bw,+18004312754,6191.5621555678945,,X90gHqj82I7eb0SfTxGyYw,02140,Cambridge,MA,1960 Massachusetts Ave,,,1960 Massachusetts Ave,42.38985,-71.12072,banks,NA,NA
communications,103.3 AMP Radio,https://www.yelp.com/biz/103-3-amp-radio-boston?adjust_creative=45kqYYhpW-MD2mr1wGE7bw&utm_campaign=yelp_api_v3&utm_medium=api_v3_business_search&utm_source=45kqYYhpW-MD2mr1wGE7bw,+16179311033,6460.845265637464,,zoYJK6uHQW4JjfOJq_gSdg,02135,Boston,MA,83 Leo M Birmingham Pkwy,,,83 Leo M Birmingham Pkwy,42.3592,-71.14823,radiostations,NA,NA
communications,Sovereign Bank,https://www.yelp.com/biz/sovereign-bank-boston-5?adjust_creative=45kqYYhpW-MD2mr1wGE7bw&utm_campaign=yelp_api_v3&utm_medium=api_v3_business_search&utm_source=45kqYYhpW-MD2mr1wGE7bw,+16174393281,1767.2239587654005,,wtZQQPtkBKuhLNFzZPta_A,02110,Boston,MA,100 Oliver St,,,100 Oliver St,42.355986206896,-71.052776211407,banks,NA,NA
communications,Rockland Trust,https://www.yelp.com/biz/rockland-trust-somerville?adjust_creative=45kqYYhpW-MD2mr1wGE7bw&utm_campaign=yelp_api_v3&utm_medium=api_v3_business_search&utm_source=45kqYYhpW-MD2mr1wGE7bw,+16176284000,6708.161945058616,,Uuk1Yr_AxM_2XYI9PelgSA,02144,Somerville,MA,399 Highland Ave,,,399 Highland Ave,42.3959369,-71.1205386,banks,NA,NA
communications,Brookline Bank,https://www.yelp.com/biz/brookline-bank-brookline-3?adjust_creative=45kqYYhpW-MD2mr1wGE7bw&utm_campaign=yelp_api_v3&utm_medium=api_v3_business_search&utm_source=45kqYYhpW-MD2mr1wGE7bw,+16177303580,4198.5051648465105,,nkttopNnAsFXq_J1JW5q2A,02446,Brookline,MA,1324 Beacon St,,,1324 Beacon St,42.3422957,-71.1217757,banks,NA,NA
communications,Tiaa Cref,https://www.yelp.com/biz/tiaa-cref-boston-2?adjust_creative=45kqYYhpW-MD2mr1wGE7bw&utm_campaign=yelp_api_v3&utm_medium=api_v3_business_search&utm_source=45kqYYhpW-MD2mr1wGE7bw,+16172273050,1460.1705735632418,,01Ba12yLcLUvrlLzs9jfTg,02108,Boston,MA,1 Beacon St,Ste 800,,1 Beacon St,42.3584976196289,-71.0607681274414,banks,NA,NA
communications,Bank of America,https://www.yelp.com/biz/bank-of-america-boston-14?adjust_creative=45kqYYhpW-MD2mr1wGE7bw&utm_campaign=yelp_api_v3&utm_medium=api_v3_business_search&utm_source=45kqYYhpW-MD2mr1wGE7bw,+16172679076,2101.6864815962654,,d5eBSx2XYFSeAcQ_VzvVPA,02215,Boston,MA,540 Commonwealth Ave,,,540 Commonwealth Ave,42.3484306,-71.0968018,banks,NA,NA
communications,Bank of America,https://www.yelp.com/biz/bank-of-america-cambridge-9?adjust_creative=45kqYYhpW-MD2mr1wGE7bw&utm_campaign=yelp_api_v3&utm_medium=api_v3_business_search&utm_source=45kqYYhpW-MD2mr1wGE7bw,+18004321000,2299.2780043284183,,i9R31reDG_LI7BQbrsOY_Q,02141,Cambridge,MA,100 Cambridgeside Pl,,,100 Cambridgeside Pl,42.36785,-71.07574,banks,NA,NA
communications,Santander Bank,https://www.yelp.com/biz/santander-bank-boston-12?adjust_creative=45kqYYhpW-MD2mr1wGE7bw&utm_campaign=yelp_api_v3&utm_medium=api_v3_business_search&utm_source=45kqYYhpW-MD2mr1wGE7bw,+16172422182,3637.957823662259,,ALxl5ywfF-AEfZcG5kUXfA,02129,Boston,MA,437 Rutherford Ave,,,437 Rutherford Ave,42.38059,-71.0708499,banks,NA,NA
communications,WKLB Country 99.5 FM,https://www.yelp.com/biz/wklb-country-99-5-fm-dorchester?adjust_creative=45kqYYhpW-MD2mr1wGE7bw&utm_campaign=yelp_api_v3&utm_medium=api_v3_business_search&utm_source=45kqYYhpW-MD2mr1wGE7bw,+16178226671,3763.553100127514,,gJfEMmn74Fg43_DRhU_5iw,02125,Dorchester,MA,55 Willim T Mrrssy Blvd,,,55 Willim T Mrrssy Blvd,42.31778,-71.050205,radiostations,NA,NA
communications,Citizens Bank,https://www.yelp.com/biz/citizens-bank-boston-20?adjust_creative=45kqYYhpW-MD2mr1wGE7bw&utm_campaign=yelp_api_v3&utm_medium=api_v3_business_search&utm_source=45kqYYhpW-MD2mr1wGE7bw,+16175516154,1364.7815956312902,,ZPVN7Um9nHrujbwWggovhA,02110,Boston,MA,77 Franklin St,,,77 Franklin St,42.355261,-71.058013,banks,NA,NA
communications,Citizens Bank,https://www.yelp.com/biz/citizens-bank-boston-15?adjust_creative=45kqYYhpW-MD2mr1wGE7bw&utm_campaign=yelp_api_v3&utm_medium=api_v3_business_search&utm_source=45kqYYhpW-MD2mr1wGE7bw,+16172678841,385.2911308689988,,JR_j7uaPhC80NEN-w8B9zA,02116,Boston,MA,426 Boylston St,,,426 Boylston St,42.3512262,-71.0725982,banks,NA,NA
communications,Citizens Bank,https://www.yelp.com/biz/citizens-bank-boston-24?adjust_creative=45kqYYhpW-MD2mr1wGE7bw&utm_campaign=yelp_api_v3&utm_medium=api_v3_business_search&utm_source=45kqYYhpW-MD2mr1wGE7bw,+16174230900,1325.910503814263,,TFqBjlK_2t_jSxvUKubuAQ,02110,Boston,MA,1 Financial Ctr,,,1 Financial Ctr,42.352517192412,-71.056400616851,banks,NA,NA
communications,TD Bank,https://www.yelp.com/biz/td-bank-boston-6?adjust_creative=45kqYYhpW-MD2mr1wGE7bw&utm_campaign=yelp_api_v3&utm_medium=api_v3_business_search&utm_source=45kqYYhpW-MD2mr1wGE7bw,+16177220055,1637.4961626259887,,dOmGapdYPvpCaxNIoq-8OQ,02114,Boston,MA,250 Cambridge St,,,250 Cambridge St,42.3619435,-71.0655013,banks,NA,NA
communications,Eastern Bank,https://www.yelp.com/biz/eastern-bank-dorchester?adjust_creative=45kqYYhpW-MD2mr1wGE7bw&utm_campaign=yelp_api_v3&utm_medium=api_v3_business_search&utm_source=45kqYYhpW-MD2mr1wGE7bw,+16179291906,7070.248141089263,,Z_kQc5Qp06K2zBdCY_nT4Q,02124,Dorchester,MA,1906 Dorchester Avenue,Ashmont Station,,1906 Dorchester Avenue,42.2844508624846,-71.0645397372645,banks,NA,NA
communications,Eastern Bank,https://www.yelp.com/biz/eastern-bank-east-boston?adjust_creative=45kqYYhpW-MD2mr1wGE7bw&utm_campaign=yelp_api_v3&utm_medium=api_v3_business_search&utm_source=45kqYYhpW-MD2mr1wGE7bw,+16172358160,4081.4174338333646,,KHtqaPreIpf4tC_LSmcdhQ,02128,East Boston,MA,246 Border Street,Shaw's Supermarket,,246 Border Street,42.37607,-71.0419,banks,NA,NA
communications,Bank of Canton,https://www.yelp.com/biz/bank-of-canton-quincy?adjust_creative=45kqYYhpW-MD2mr1wGE7bw&utm_campaign=yelp_api_v3&utm_medium=api_v3_business_search&utm_source=45kqYYhpW-MD2mr1wGE7bw,+18888281690,12318.966663751742,,Yn5aF9DGttiuxAhscnOTNA,02169,Quincy,MA,60 Mayor Thomas McGrath Hwy,,,60 Mayor Thomas McGrath Hwy,42.2511234,-70.9981921,banks,NA,NA
communications,Metro Credit Union,https://www.yelp.com/biz/metro-credit-union-boston-4?adjust_creative=45kqYYhpW-MD2mr1wGE7bw&utm_campaign=yelp_api_v3&utm_medium=api_v3_business_search&utm_source=45kqYYhpW-MD2mr1wGE7bw,+18776963876,1643.707675219215,,c8uNNCgt5KnHjTyKI3rhcg,02108,Boston,MA,100 City Hall Plz,,,100 City Hall Plz,42.3594493,-71.0588576,banks,NA,NA
communications,TD Bank,https://www.yelp.com/biz/td-bank-cambridge-2?adjust_creative=45kqYYhpW-MD2mr1wGE7bw&utm_campaign=yelp_api_v3&utm_medium=api_v3_business_search&utm_source=45kqYYhpW-MD2mr1wGE7bw,+16175768612,4633.372612084306,,g1SOYuqMasxZVyBhi93BBA,02138,Cambridge,MA,1270 Massachusetts Ave,,,1270 Massachusetts Ave,42.37251,-71.11665,banks,NA,NA
communications,Century Bank,https://www.yelp.com/biz/century-bank-malden?adjust_creative=45kqYYhpW-MD2mr1wGE7bw&utm_campaign=yelp_api_v3&utm_medium=api_v3_business_search&utm_source=45kqYYhpW-MD2mr1wGE7bw,+17813882100,8529.271713640557,,uTxP5YyzfgpWjrx2oDUEag,02148,Malden,MA,140 Ferry St,,,140 Ferry St,42.4243655,-71.0640963,banks,NA,NA
communications,Bank of America,https://www.yelp.com/biz/bank-of-america-boston-34?adjust_creative=45kqYYhpW-MD2mr1wGE7bw&utm_campaign=yelp_api_v3&utm_medium=api_v3_business_search&utm_source=45kqYYhpW-MD2mr1wGE7bw,+16174516266,1332.8208060164227,,tFO9Zw12ZBWQdP7FgA3szQ,02110,Boston,MA,65 Franklin St,,,65 Franklin St,42.35528,-71.05843,banks,NA,NA
communications,Citizens Bank,https://www.yelp.com/biz/citizens-bank-boston-7?adjust_creative=45kqYYhpW-MD2mr1wGE7bw&utm_campaign=yelp_api_v3&utm_medium=api_v3_business_search&utm_source=45kqYYhpW-MD2mr1wGE7bw,+16172271906,1724.6251844317499,,umLE7cBRwvOlxLJCZyjC8w,02109,Boston,MA,53 State St,,,53 State St,42.3588104,-71.0561829,banks,NA,NA
communications,OneUnited Bank,https://www.yelp.com/biz/oneunited-bank-roxbury?adjust_creative=45kqYYhpW-MD2mr1wGE7bw&utm_campaign=yelp_api_v3&utm_medium=api_v3_business_search&utm_source=45kqYYhpW-MD2mr1wGE7bw,+16174574400,2279.960167691882,,0IC6Ige1ZbnjEcqH_KQECg,02119,Roxbury,MA,2343 Washington St,,,2343 Washington St,42.329994,-71.085121,banks,NA,NA
communications,Santander Bank,https://www.yelp.com/biz/santander-bank-boston?adjust_creative=45kqYYhpW-MD2mr1wGE7bw&utm_campaign=yelp_api_v3&utm_medium=api_v3_business_search&utm_source=45kqYYhpW-MD2mr1wGE7bw,+16173670507,953.150803341475,,piolVhCR-yFc3NUGKMVm3w,02108,Boston,MA,67 Beacon St,,,67 Beacon St,42.3562649,-71.0696167,banks,NA,NA
communications,First Republic Bank,https://www.yelp.com/biz/first-republic-bank-cambridge?adjust_creative=45kqYYhpW-MD2mr1wGE7bw&utm_campaign=yelp_api_v3&utm_medium=api_v3_business_search&utm_source=45kqYYhpW-MD2mr1wGE7bw,+16172188488,5052.133289798912,,dWkPabwvZDT7YjtDy__Y7A,02138,Cambridge,MA,47 Brattle St,,,47 Brattle St,42.374139,-71.121386,banks,NA,NA
communications,Commerce Bank,https://www.yelp.com/biz/commerce-bank-boston-2?adjust_creative=45kqYYhpW-MD2mr1wGE7bw&utm_campaign=yelp_api_v3&utm_medium=api_v3_business_search&utm_source=45kqYYhpW-MD2mr1wGE7bw,+16177780500,729.2765833916135,,-ezNPpfdYDP075F9WJkO9Q,02118,Boston,MA,1320 Washington St,,,1320 Washington St,42.3416148,-71.0684572,banks,NA,NA
communications,Rockland Trust,https://www.yelp.com/biz/rockland-trust-brookline?adjust_creative=45kqYYhpW-MD2mr1wGE7bw&utm_campaign=yelp_api_v3&utm_medium=api_v3_business_search&utm_source=45kqYYhpW-MD2mr1wGE7bw,+16172774743,4273.640397705017,,F1W7t086ex7vVeHRWSUfSQ,02445,Brookline,MA,264 Washington St,,,264 Washington St,42.33299,-71.11919,banks,NA,NA
communications,Cambridge Savings Bank,https://www.yelp.com/biz/cambridge-savings-bank-cambridge-13?adjust_creative=45kqYYhpW-MD2mr1wGE7bw&utm_campaign=yelp_api_v3&utm_medium=api_v3_business_search&utm_source=45kqYYhpW-MD2mr1wGE7bw,+16174414154,4830.417422983372,,zJBIZPq9OcXrPgiW-EduXA,02138,Cambridge,MA,1374 Massachusetts Ave,,,1374 Massachusetts Ave,42.3732533,-71.1186718,banks,NA,NA
communications,Metro Credit Union,https://www.yelp.com/biz/metro-credit-union-chelsea?adjust_creative=45kqYYhpW-MD2mr1wGE7bw&utm_campaign=yelp_api_v3&utm_medium=api_v3_business_search&utm_source=45kqYYhpW-MD2mr1wGE7bw,+18776963876,6953.983181787157,,-4DDszZHzSvY5unbtpoJiA,02150,Chelsea,MA,200 Revere Beach Pkwy,,,200 Revere Beach Pkwy,42.404197,-71.03454,banks,NA,NA
communications,Citizens Bank,https://www.yelp.com/biz/citizens-bank-cambridge-12?adjust_creative=45kqYYhpW-MD2mr1wGE7bw&utm_campaign=yelp_api_v3&utm_medium=api_v3_business_search&utm_source=45kqYYhpW-MD2mr1wGE7bw,+16175516158,2228.8834155253926,,RExMcCydx-o4Hlah7YFGug,02138,Cambridge,MA,560 Commonwealth Ave,,,560 Commonwealth Ave,42.3487167358398,-71.098388671875,banks,NA,NA
communications,Accion USA,https://www.yelp.com/biz/accion-usa-boston?adjust_creative=45kqYYhpW-MD2mr1wGE7bw&utm_campaign=yelp_api_v3&utm_medium=api_v3_business_search&utm_source=45kqYYhpW-MD2mr1wGE7bw,+16176257080,3787.365080981226,,AvZRe0IqOQvnTAEHra-cew,02129,Boston,MA,56 Roland St,,,56 Roland St,42.38122,-71.08017,banks,NA,NA
communications,Admirals Bank,https://www.yelp.com/biz/admirals-bank-boston?adjust_creative=45kqYYhpW-MD2mr1wGE7bw&utm_campaign=yelp_api_v3&utm_medium=api_v3_business_search&utm_source=45kqYYhpW-MD2mr1wGE7bw,+16179331450,510.52142522748426,,jhVD-YOitCCrmxAOlkNeug,02116,Boston,MA,579 Boylston St,,,579 Boylston St,42.3501436187356,-71.0766183609637,banks,NA,NA
communications,East Cambridge Savings Bank,https://www.yelp.com/biz/east-cambridge-savings-bank-cambridge-13?adjust_creative=45kqYYhpW-MD2mr1wGE7bw&utm_campaign=yelp_api_v3&utm_medium=api_v3_business_search&utm_source=45kqYYhpW-MD2mr1wGE7bw,+16175512460,3665.12301979438,,jvbWXVDZXRQeCQykmWgyjw,02139,Cambridge,MA,1310 Cambridge St,,Inman Square Banking Center,1310 Cambridge St,42.3734093,-71.0993959,banks,NA,NA
communications,Bank of America,https://www.yelp.com/biz/bank-of-america-boston-6?adjust_creative=45kqYYhpW-MD2mr1wGE7bw&utm_campaign=yelp_api_v3&utm_medium=api_v3_business_search&utm_source=45kqYYhpW-MD2mr1wGE7bw,+18008414000,1482.7153108071598,,X4eoTmEHniaqAYHVtMuEGg,02110,Boston,MA,100 Federal St,,,100 Federal St,42.3550453186035,-71.0558395385742,banks,NA,NA
communications,Leader Bank - Belmont,https://www.yelp.com/biz/leader-bank-belmont-belmont?adjust_creative=45kqYYhpW-MD2mr1wGE7bw&utm_campaign=yelp_api_v3&utm_medium=api_v3_business_search&utm_source=45kqYYhpW-MD2mr1wGE7bw,+16174895100,10050.222699573476,,Zn8IKYmcdRCQ5EXEDce4tA,02478,Belmont,MA,363 Pleasant St,,,363 Pleasant St,42.4036851,-71.1674459,banks,NA,NA
communications,Boston Private,https://www.yelp.com/biz/boston-private-boston?adjust_creative=45kqYYhpW-MD2mr1wGE7bw&utm_campaign=yelp_api_v3&utm_medium=api_v3_business_search&utm_source=45kqYYhpW-MD2mr1wGE7bw,+16179124500,396.1671253504655,,hJ1fC77wNpe_pg5cBjVKsA,02116,Boston,MA,500 Boylston St,,,500 Boylston St,42.3507003728258,-71.0741205079346,banks,NA,NA
communications,East West Bank,https://www.yelp.com/biz/east-west-bank-boston-2?adjust_creative=45kqYYhpW-MD2mr1wGE7bw&utm_campaign=yelp_api_v3&utm_medium=api_v3_business_search&utm_source=45kqYYhpW-MD2mr1wGE7bw,+16173380290,886.084120373237,,jWrWvZn1qTtksZ-zi9NqKw,02111,Boston,MA,68 Harrison Ave,,,68 Harrison Ave,42.3511992627847,-71.0614646676602,banks,NA,NA
communications,Massachusetts State Employees Credit Union,https://www.yelp.com/biz/massachusetts-state-employees-credit-union-boston?adjust_creative=45kqYYhpW-MD2mr1wGE7bw&utm_campaign=yelp_api_v3&utm_medium=api_v3_business_search&utm_source=45kqYYhpW-MD2mr1wGE7bw,+18007007733,1590.4964712574958,,i4Xy93hLsdFPiZ5Ah_bRIg,02114,Boston,MA,1 Center Plz,Ste 250,,1 Center Plz,42.3598459761926,-71.0607186102542,banks,NA,NA
communications,Cambridge Trust Company,https://www.yelp.com/biz/cambridge-trust-company-cambridge-10?adjust_creative=45kqYYhpW-MD2mr1wGE7bw&utm_campaign=yelp_api_v3&utm_medium=api_v3_business_search&utm_source=45kqYYhpW-MD2mr1wGE7bw,+16172250792,2844.380296457374,,Nf3n3cgnwj8TsHBz8kx28Q,02139,Cambridge,MA,350 Massachusetts Ave,,,350 Massachusetts Ave,42.36247,-71.09964,banks,NA,NA
communications,WMFO,https://www.yelp.com/biz/wmfo-medford?adjust_creative=45kqYYhpW-MD2mr1wGE7bw&utm_campaign=yelp_api_v3&utm_medium=api_v3_business_search&utm_source=45kqYYhpW-MD2mr1wGE7bw,+16176250800,7870.5954806380205,,lFK7rI0fo34ojOBktC5D5Q,02155,Medford,MA,450 Boston Ave,,,450 Boston Ave,42.409386,-71.118573,radiostations,NA,NA
communications,Bank of America,https://www.yelp.com/biz/bank-of-america-boston-33?adjust_creative=45kqYYhpW-MD2mr1wGE7bw&utm_campaign=yelp_api_v3&utm_medium=api_v3_business_search&utm_source=45kqYYhpW-MD2mr1wGE7bw,,860.7297016566159,,FQC2nVe4D5BK52x5U8vtHA,02111,Boston,MA,630 Washington St,Ste 100,,630 Washington St,42.3521140079709,-71.062509098065,banks,NA,NA
communications,Medical Area Federal Credit Union,https://www.yelp.com/biz/medical-area-federal-credit-union-boston-3?adjust_creative=45kqYYhpW-MD2mr1wGE7bw&utm_campaign=yelp_api_v3&utm_medium=api_v3_business_search&utm_source=45kqYYhpW-MD2mr1wGE7bw,+16172785600,8386.930371894685,,DRSqWfQDb7lYvQrvpVAf1A,02124,Boston,MA,1205 Adams St,,,1205 Adams St,42.27249,-71.06728,banks,NA,NA
communications,Sovereign Bank,https://www.yelp.com/biz/sovereign-bank-boston-15?adjust_creative=45kqYYhpW-MD2mr1wGE7bw&utm_campaign=yelp_api_v3&utm_medium=api_v3_business_search&utm_source=45kqYYhpW-MD2mr1wGE7bw,+18777682265,2243.491082170416,,hUUZXR8Z-6t1AtC2-SR4Dw,02113,Boston,MA,287 Hanover St,,,287 Hanover St,42.36372,-71.05425,banks,NA,NA
communications,Citizens Bank,https://www.yelp.com/biz/citizens-bank-boston-25?adjust_creative=45kqYYhpW-MD2mr1wGE7bw&utm_campaign=yelp_api_v3&utm_medium=api_v3_business_search&utm_source=45kqYYhpW-MD2mr1wGE7bw,+16174228240,710.5657757330047,,2PbK9w9y6b8mG1qUvLYg9w,02118,Boston,MA,1355 Washington St,,,1355 Washington St,42.3415909,-71.0693512,banks,NA,NA
communications,Webster Bank,https://www.yelp.com/biz/webster-bank-boston-2?adjust_creative=45kqYYhpW-MD2mr1wGE7bw&utm_campaign=yelp_api_v3&utm_medium=api_v3_business_search&utm_source=45kqYYhpW-MD2mr1wGE7bw,+16172368502,2449.9776362107978,,0PpSjIsSzfq9FA5OWsYSSA,02215,Boston,MA,1367 Boylston St,,,1367 Boylston St,42.3439274,-71.1007018,banks,NA,NA
communications,Citizens Bank,https://www.yelp.com/biz/citizens-bank-brookline?adjust_creative=45kqYYhpW-MD2mr1wGE7bw&utm_campaign=yelp_api_v3&utm_medium=api_v3_business_search&utm_source=45kqYYhpW-MD2mr1wGE7bw,+16177311900,4305.22933489887,,2ZHT9C6Ctk7aSlu3iJRVjg,02446,Brookline,MA,315 Harvard St,,,315 Harvard St,42.34379,-71.12344,banks,NA,NA
communications,TD Bank,https://www.yelp.com/biz/td-bank-arlington-2?adjust_creative=45kqYYhpW-MD2mr1wGE7bw&utm_campaign=yelp_api_v3&utm_medium=api_v3_business_search&utm_source=45kqYYhpW-MD2mr1wGE7bw,+17816410050,10763.801884655055,,dC_gBLOoKvZGQPuGM-5zkg,02476,Arlington,MA,880 Massachusetts Ave,,,880 Massachusetts Ave,42.4171142,-71.1632896,banks,NA,NA
communications,Eastern Bank,https://www.yelp.com/biz/eastern-bank-melrose?adjust_creative=45kqYYhpW-MD2mr1wGE7bw&utm_campaign=yelp_api_v3&utm_medium=api_v3_business_search&utm_source=45kqYYhpW-MD2mr1wGE7bw,+17816652264,11797.494152602676,,uaaU0BHj2wEVxHwY3aLvog,02176,Melrose,MA,441 Main Street,,,441 Main Street,42.4539818,-71.0657328,banks,NA,NA
communications,Leader Bank - Arlington,https://www.yelp.com/biz/leader-bank-arlington-arlington?adjust_creative=45kqYYhpW-MD2mr1wGE7bw&utm_campaign=yelp_api_v3&utm_medium=api_v3_business_search&utm_source=45kqYYhpW-MD2mr1wGE7bw,+17816410020,9942.300034616212,,p4jckhdkSOgnpvFxfrMUSA,02474,Arlington,MA,449 Massachusetts Ave,,,449 Massachusetts Ave,42.4149374,-71.1513796,banks,NA,NA
communications,Xm Satel Radio,https://www.yelp.com/biz/xm-satel-radio-boston?adjust_creative=45kqYYhpW-MD2mr1wGE7bw&utm_campaign=yelp_api_v3&utm_medium=api_v3_business_search&utm_source=45kqYYhpW-MD2mr1wGE7bw,+16176701097,1801.5362975295066,,j4Qr_xYo8mVEUXRNRsJGJw,02114,Boston,MA,4 Longfellow Pl,,,4 Longfellow Pl,42.36315,-71.0643,radiostations,NA,NA
communications,Wrko Am 680,https://www.yelp.com/biz/wrko-am-680-brighton?adjust_creative=45kqYYhpW-MD2mr1wGE7bw&utm_campaign=yelp_api_v3&utm_medium=api_v3_business_search&utm_source=45kqYYhpW-MD2mr1wGE7bw,+16172666868,6263.890695021089,,NdOfvLX9ok0WKee6IR8YlA,02135,Brighton,MA,20 Guest St,,,20 Guest St,42.3574905,-71.1477585,radiostations,NA,NA
communications,Sovereign Bank,https://www.yelp.com/biz/sovereign-bank-boston-13?adjust_creative=45kqYYhpW-MD2mr1wGE7bw&utm_campaign=yelp_api_v3&utm_medium=api_v3_business_search&utm_source=45kqYYhpW-MD2mr1wGE7bw,+18777682265,838.8077671438739,,CLdrD8WYAOxeg3ghIdY9MQ,02111,Boston,MA,43 Kneeland St,,,43 Kneeland St,42.3505174,-71.0617333,banks,NA,NA
communications,Citizens Bank,https://www.yelp.com/biz/citizens-bank-boston-9?adjust_creative=45kqYYhpW-MD2mr1wGE7bw&utm_campaign=yelp_api_v3&utm_medium=api_v3_business_search&utm_source=45kqYYhpW-MD2mr1wGE7bw,+16174228500,2364.0254341803534,,MVE1TJ5rWosk98wkhksz0A,02127,Boston,MA,441 W Broadway,,,441 W Broadway,42.3360481,-71.0472183,banks,NA,NA
communications,Santander,https://www.yelp.com/biz/santander-boston-2?adjust_creative=45kqYYhpW-MD2mr1wGE7bw&utm_campaign=yelp_api_v3&utm_medium=api_v3_business_search&utm_source=45kqYYhpW-MD2mr1wGE7bw,+16178679760,1336.2409028568807,,Iq2Ey5AiDK9JUKddyDLZ7g,02115,Boston,MA,279 Massachusetts Ave,,,279 Massachusetts Ave,42.3435126,-71.0859749,banks,NA,NA
communications,Bank of America,https://www.yelp.com/biz/bank-of-america-brighton?adjust_creative=45kqYYhpW-MD2mr1wGE7bw&utm_campaign=yelp_api_v3&utm_medium=api_v3_business_search&utm_source=45kqYYhpW-MD2mr1wGE7bw,+16178318310,6722.756591206704,,ibUwxtIfioXHdbKzzDR3Kw,02135,Brighton,MA,350 Chestnut Hill Ave,,,350 Chestnut Hill Ave,42.337089,-71.151702,banks,NA,NA
communications,Citizens Bank,https://www.yelp.com/biz/citizens-bank-boston-10?adjust_creative=45kqYYhpW-MD2mr1wGE7bw&utm_campaign=yelp_api_v3&utm_medium=api_v3_business_search&utm_source=45kqYYhpW-MD2mr1wGE7bw,+16172775813,3202.0304495573837,,o17AePmzSY9wP-svnCNCXg,02215,Boston,MA,435 Brookline Ave,,,435 Brookline Ave,42.3383125662804,-71.1080029606819,banks,NA,NA
communications,Somerville Community Access Television,https://www.yelp.com/biz/somerville-community-access-television-somerville?adjust_creative=45kqYYhpW-MD2mr1wGE7bw&utm_campaign=yelp_api_v3&utm_medium=api_v3_business_search&utm_source=45kqYYhpW-MD2mr1wGE7bw,+16176288826,3985.947272892246,,b4VSGrM-S3sVk1GKmv4NXg,02143,Somerville,MA,90 Union Sq,,,90 Union Sq,42.379492521286,-71.0950371623039,televisionstations,NA,NA
communications,Bank of America,https://www.yelp.com/biz/bank-of-america-cambridge-3?adjust_creative=45kqYYhpW-MD2mr1wGE7bw&utm_campaign=yelp_api_v3&utm_medium=api_v3_business_search&utm_source=45kqYYhpW-MD2mr1wGE7bw,+16174983120,4917.792074563139,,7k-XqKlOzvc86HX1F0k_WA,02138,Cambridge,MA,1414 Massachusetts Ave,,,1414 Massachusetts Ave,42.3738646,-71.1190049,banks,NA,NA
communications,BNY Mellon,https://www.yelp.com/biz/bny-mellon-boston?adjust_creative=45kqYYhpW-MD2mr1wGE7bw&utm_campaign=yelp_api_v3&utm_medium=api_v3_business_search&utm_source=45kqYYhpW-MD2mr1wGE7bw,+16173942100,1594.2911597347559,,pDFiaLZZvtHVcrZC7z5tLw,02108,Boston,MA,1 Boston Pl,Ste 500,,1 Boston Pl,42.358568,-71.058369,banks,NA,NA
communications,Wbz Tv 4,https://www.yelp.com/biz/wbz-tv-4-allston?adjust_creative=45kqYYhpW-MD2mr1wGE7bw&utm_campaign=yelp_api_v3&utm_medium=api_v3_business_search&utm_source=45kqYYhpW-MD2mr1wGE7bw,+16177877000,4757.705232048065,,r0TGSgTcwpSixd0xqY3ivg,02134,Allston,MA,,,,"Allston, MA 02134",42.35341,-71.13217,radiostations,NA,NA
communications,Sovereign Bank,https://www.yelp.com/biz/sovereign-bank-boston-7?adjust_creative=45kqYYhpW-MD2mr1wGE7bw&utm_campaign=yelp_api_v3&utm_medium=api_v3_business_search&utm_source=45kqYYhpW-MD2mr1wGE7bw,+18777682265,2104.3917031947635,,qiYmt_e-K-ywg8Elgvy4dA,02114,Boston,MA,125 Causeway St,,,125 Causeway St,42.3652000427246,-71.0611724853516,banks,NA,NA
communications,East Cambridge Savings Bank,https://www.yelp.com/biz/east-cambridge-savings-bank-somerville-3?adjust_creative=45kqYYhpW-MD2mr1wGE7bw&utm_campaign=yelp_api_v3&utm_medium=api_v3_business_search&utm_source=45kqYYhpW-MD2mr1wGE7bw,+16175512470,5979.227637569464,,9ET_leIudg4B9n-uRUQ4_w,02143,Somerville,MA,285 Highland Ave,,Highland Avenue Banking Ctr,285 Highland Ave,42.3922965,-71.112192,banks,NA,NA
communications,Citizens Bank,https://www.yelp.com/biz/citizens-bank-quincy-4?adjust_creative=45kqYYhpW-MD2mr1wGE7bw&utm_campaign=yelp_api_v3&utm_medium=api_v3_business_search&utm_source=45kqYYhpW-MD2mr1wGE7bw,+16179842242,11890.834483986848,,HWuHPXMwnB8UoU8ic6GSmA,02169,Quincy,MA,1200 Hancock Street Lbby,,,1200 Hancock Street Lbby,42.25292,-71.00439,banks,NA,NA
communications,Bank of America,https://www.yelp.com/biz/bank-of-america-allston?adjust_creative=45kqYYhpW-MD2mr1wGE7bw&utm_campaign=yelp_api_v3&utm_medium=api_v3_business_search&utm_source=45kqYYhpW-MD2mr1wGE7bw,+18004321000,4985.898223127557,,6EEHHSC_bsSVaAeDredu-A,02134,Allston,MA,1237 Commonwealth Ave,,,1237 Commonwealth Ave,42.3503828,-71.1315862,banks,NA,NA
communications,Waaf,https://www.yelp.com/biz/waaf-brighton?adjust_creative=45kqYYhpW-MD2mr1wGE7bw&utm_campaign=yelp_api_v3&utm_medium=api_v3_business_search&utm_source=45kqYYhpW-MD2mr1wGE7bw,+16177795400,6263.890695021089,,r0R8e5cQVqXfscheLYCzpA,02135,Brighton,MA,20 Guest St,,,20 Guest St,42.3574905,-71.1477585,radiostations,NA,NA
communications,Citizens Bank,https://www.yelp.com/biz/citizens-bank-roxbury-2?adjust_creative=45kqYYhpW-MD2mr1wGE7bw&utm_campaign=yelp_api_v3&utm_medium=api_v3_business_search&utm_source=45kqYYhpW-MD2mr1wGE7bw,+16174228240,701.404723066503,,ymYtl7rWAwojvVzU2tBvgA,02118,Roxbury,MA,1355 Washington St,,,1355 Washington St,42.3415913,-71.069348,banks,NA,NA
communications,TD Bank,https://www.yelp.com/biz/td-bank-brighton-2?adjust_creative=45kqYYhpW-MD2mr1wGE7bw&utm_campaign=yelp_api_v3&utm_medium=api_v3_business_search&utm_source=45kqYYhpW-MD2mr1wGE7bw,+16177821240,6725.050253998345,,1ED72UEhGCz65TMvE-zZVw,02135,Brighton,MA,391 Market St,,,391 Market St,42.3502998,-71.1531067,banks,NA,NA
communications,Santander Bank,https://www.yelp.com/biz/santander-bank-cambridge?adjust_creative=45kqYYhpW-MD2mr1wGE7bw&utm_campaign=yelp_api_v3&utm_medium=api_v3_business_search&utm_source=45kqYYhpW-MD2mr1wGE7bw,+16173494561,4900.71363220563,,Oys_cKeGlsLpnqnuHV-jbw,02138,Cambridge,MA,1420 Massachusetts Ave,,Harvard Square,1420 Massachusetts Ave,42.373867,-71.1190033,banks,NA,NA
communications,Community Credit Union,https://www.yelp.com/biz/community-credit-union-somerville?adjust_creative=45kqYYhpW-MD2mr1wGE7bw&utm_campaign=yelp_api_v3&utm_medium=api_v3_business_search&utm_source=45kqYYhpW-MD2mr1wGE7bw,+18008627009,6573.029931330087,,hbnuiWqQ1RFknATthA5Ovw,02144,Somerville,MA,377 Summer St,,,377 Summer St,42.39434,-71.12063,banks,NA,NA
communications,OneUnited Bank,https://www.yelp.com/biz/oneunited-bank-dorchester?adjust_creative=45kqYYhpW-MD2mr1wGE7bw&utm_campaign=yelp_api_v3&utm_medium=api_v3_business_search&utm_source=45kqYYhpW-MD2mr1wGE7bw,+16174574400,4331.291466969597,,Dy5N0SoaNQGq0c8Rw2TyjA,02121,Dorchester,MA,648 Warren St,,,648 Warren St,42.3102432489395,-71.0830141603947,banks,NA,NA
communications,Citizens Bank,https://www.yelp.com/biz/citizens-bank-somerville-3?adjust_creative=45kqYYhpW-MD2mr1wGE7bw&utm_campaign=yelp_api_v3&utm_medium=api_v3_business_search&utm_source=45kqYYhpW-MD2mr1wGE7bw,+16176292707,4161.55042175193,,p8qYpSESPS1KLFuMPUDzaA,02143,Somerville,MA,40 Union Sq,,,40 Union Sq,42.380285723752,-71.096493335045,banks,NA,NA
communications,Citizen's Bank,https://www.yelp.com/biz/citizens-bank-boston-19?adjust_creative=45kqYYhpW-MD2mr1wGE7bw&utm_campaign=yelp_api_v3&utm_medium=api_v3_business_search&utm_source=45kqYYhpW-MD2mr1wGE7bw,+16174228383,1255.9886897327153,,x7_4HIOYQo9BwsX04P4Lww,02110,Boston,MA,40 Summer St,,,40 Summer St,42.3547172546387,-71.0591125488281,banks,NA,NA
communications,Naveo Credit Union,https://www.yelp.com/biz/naveo-credit-union-somerville-2?adjust_creative=45kqYYhpW-MD2mr1wGE7bw&utm_campaign=yelp_api_v3&utm_medium=api_v3_business_search&utm_source=45kqYYhpW-MD2mr1wGE7bw,+16175473144,4778.973866932781,,IW2NcaK7shKpQD-S7mVXXw,02143,Somerville,MA,493 Somerville Ave,,,493 Somerville Ave,42.38311,-71.1045685,banks,NA,NA
communications,Salem Five Bank,https://www.yelp.com/biz/salem-five-bank-boston?adjust_creative=45kqYYhpW-MD2mr1wGE7bw&utm_campaign=yelp_api_v3&utm_medium=api_v3_business_search&utm_source=45kqYYhpW-MD2mr1wGE7bw,+16172482401,1686.994923728101,,YaljZx-FpYVmA1mUwntUNw,02109,Boston,MA,52 Congress St,,,52 Congress St,42.3579523,-71.0563522,banks,NA,NA
communications,Evolution 101.7 FM,https://www.yelp.com/biz/evolution-101-7-fm-medford?adjust_creative=45kqYYhpW-MD2mr1wGE7bw&utm_campaign=yelp_api_v3&utm_medium=api_v3_business_search&utm_source=45kqYYhpW-MD2mr1wGE7bw,,6547.3828623707805,,jwdsaYIV5MaTxkdR-TrDPg,02155,Medford,MA,10 Cabot Rd,Ste 302,,10 Cabot Rd,42.4065151065588,-71.0763133317232,radiostations,NA,NA
communications,Brookline Municipal Credit Union,https://www.yelp.com/biz/brookline-municipal-credit-union-brookline?adjust_creative=45kqYYhpW-MD2mr1wGE7bw&utm_campaign=yelp_api_v3&utm_medium=api_v3_business_search&utm_source=45kqYYhpW-MD2mr1wGE7bw,+16172329410,4382.799769626203,,ze923xu9lfO_sK3x_agN-w,02445,Brookline,MA,334 Washington St,,,334 Washington St,42.3333702087402,-71.1208801269531,banks,NA,NA
communications,Sovereign Bank Boston Administrative Offices,https://www.yelp.com/biz/sovereign-bank-boston-administrative-offices-boston?adjust_creative=45kqYYhpW-MD2mr1wGE7bw&utm_campaign=yelp_api_v3&utm_medium=api_v3_business_search&utm_source=45kqYYhpW-MD2mr1wGE7bw,+16177573400,1774.041026987191,,KzWoGJABbaC0S2NrpTrSJg,02109,Boston,MA,75 State St,,,75 State St,42.358885,-71.055662,banks,NA,NA
communications,Bank of America,https://www.yelp.com/biz/bank-of-america-boston-24?adjust_creative=45kqYYhpW-MD2mr1wGE7bw&utm_campaign=yelp_api_v3&utm_medium=api_v3_business_search&utm_source=45kqYYhpW-MD2mr1wGE7bw,+16175661794,3024.398999725756,,rMkifsvRvslN2TwHLUrtXg,02115,Boston,MA,333 Longwood Ave,,,333 Longwood Ave,42.338141638038,-71.105622586314,banks,NA,NA
communications,Santander Bank,https://www.yelp.com/biz/santander-bank-boston-2?adjust_creative=45kqYYhpW-MD2mr1wGE7bw&utm_campaign=yelp_api_v3&utm_medium=api_v3_business_search&utm_source=45kqYYhpW-MD2mr1wGE7bw,+16173458004,2557.395021239203,,FQlJrxvqwUGOZ1DUyuaZww,02210,Boston,MA,200 Seaport Blvd,,,200 Seaport Blvd,42.3501282,-71.0416107,banks,NA,NA
communications,Naveo Credit Union,https://www.yelp.com/biz/naveo-credit-union-cambridge?adjust_creative=45kqYYhpW-MD2mr1wGE7bw&utm_campaign=yelp_api_v3&utm_medium=api_v3_business_search&utm_source=45kqYYhpW-MD2mr1wGE7bw,+16175473144,3834.3645053273917,,I33F_faK6AfIu9XT6vjUZA,02139,Cambridge,MA,251 Hampshire St,,,251 Hampshire St,42.3742172,-71.1013054,banks,NA,NA
communications,East Boston Savings Bank,https://www.yelp.com/biz/east-boston-savings-bank-east-boston-2?adjust_creative=45kqYYhpW-MD2mr1wGE7bw&utm_campaign=yelp_api_v3&utm_medium=api_v3_business_search&utm_source=45kqYYhpW-MD2mr1wGE7bw,+18006573272,6564.875208034662,,z0hGmne4nlDlaXTF9RTmtA,02128,East Boston,MA,856 Bennington St,,,856 Bennington St,42.3856686,-71.010162,banks,NA,NA
communications,Bank of America,https://www.yelp.com/biz/bank-of-america-boston-19?adjust_creative=45kqYYhpW-MD2mr1wGE7bw&utm_campaign=yelp_api_v3&utm_medium=api_v3_business_search&utm_source=45kqYYhpW-MD2mr1wGE7bw,+16175239561,559.8890811937068,,spwu3iwUAhEKlFo_ybALAQ,02116,Boston,MA,157 Stuart St,,,157 Stuart St,42.3511953,-71.0663429,banks,NA,NA
communications,Russian Radio Network,https://www.yelp.com/biz/russian-radio-network-allston?adjust_creative=45kqYYhpW-MD2mr1wGE7bw&utm_campaign=yelp_api_v3&utm_medium=api_v3_business_search&utm_source=45kqYYhpW-MD2mr1wGE7bw,+16177875900,4967.003937721644,,rduEfUFoNn0Nt5TGqR3C9A,02134,Allston,MA,20 Linden St,,,20 Linden St,42.35549,-71.13072,radiostations,NA,NA
communications,Eastern Bank,https://www.yelp.com/biz/eastern-bank-cambridge-3?adjust_creative=45kqYYhpW-MD2mr1wGE7bw&utm_campaign=yelp_api_v3&utm_medium=api_v3_business_search&utm_source=45kqYYhpW-MD2mr1wGE7bw,+16173543616,4978.354372399577,,Hr9JUJX124lq4d3ZXaWKIQ,02138,Cambridge,MA,One Brattle Square,Harvard Square,,One Brattle Square,42.3732796,-71.1214676,banks,NA,NA
communications,Eastern Bank,https://www.yelp.com/biz/eastern-bank-cambridge?adjust_creative=45kqYYhpW-MD2mr1wGE7bw&utm_campaign=yelp_api_v3&utm_medium=api_v3_business_search&utm_source=45kqYYhpW-MD2mr1wGE7bw,+16174982500,2130.8571891292986,,sLPKu94p2tmAzuEcsR6pNw,02142,Cambridge,MA,287 Third St,,,287 Third St,42.365395501256,-71.0826386511326,banks,NA,NA
communications,Santander,https://www.yelp.com/biz/santander-boston-3?adjust_creative=45kqYYhpW-MD2mr1wGE7bw&utm_campaign=yelp_api_v3&utm_medium=api_v3_business_search&utm_source=45kqYYhpW-MD2mr1wGE7bw,+16177573410,1770.0500154364115,,qoSL2bbb_8wEiplAP8wyRQ,02109,Boston,MA,75 State St,,,75 State St,42.3589232215394,-71.0557793453336,banks,NA,NA
communications,Santander,https://www.yelp.com/biz/santander-somerville-3?adjust_creative=45kqYYhpW-MD2mr1wGE7bw&utm_campaign=yelp_api_v3&utm_medium=api_v3_business_search&utm_source=45kqYYhpW-MD2mr1wGE7bw,+16176235875,6741.832232901203,,840UubkJ0v9ivvD-meYu0g,02144,Somerville,MA,403 Highland Ave,,,403 Highland Ave,42.39586,-71.12049,banks,NA,NA
communications,Cambridge Trust Company,https://www.yelp.com/biz/cambridge-trust-company-belmont?adjust_creative=45kqYYhpW-MD2mr1wGE7bw&utm_campaign=yelp_api_v3&utm_medium=api_v3_business_search&utm_source=45kqYYhpW-MD2mr1wGE7bw,+16174840892,10140.7730182455,,EYbo5xyrPKYh3Fjflb3H8A,02478,Belmont,MA,361 Trapelo Rd,,,361 Trapelo Rd,42.38561,-71.18341,banks,NA,NA
communications,TD Bank,https://www.yelp.com/biz/td-bank-brookline?adjust_creative=45kqYYhpW-MD2mr1wGE7bw&utm_campaign=yelp_api_v3&utm_medium=api_v3_business_search&utm_source=45kqYYhpW-MD2mr1wGE7bw,+16177392666,5414.348000201249,,Twmzw5oa1A8YMJvb4CAxhQ,02445,Brookline,MA,1641 Beacon St,,,1641 Beacon St,42.3389075,-71.1360037,banks,NA,NA
communications,Santander Bank,https://www.yelp.com/biz/santander-bank-boston-5?adjust_creative=45kqYYhpW-MD2mr1wGE7bw&utm_campaign=yelp_api_v3&utm_medium=api_v3_business_search&utm_source=45kqYYhpW-MD2mr1wGE7bw,+16173380804,1184.692953114662,,NSIKGdjbliOgzN7ZRZ82Hw,02108,Boston,MA,30 Winter St,,,30 Winter St,42.3561633473867,-71.0622408322937,banks,NA,NA
communications,Citizens Bank,https://www.yelp.com/biz/citizens-bank-charlestown?adjust_creative=45kqYYhpW-MD2mr1wGE7bw&utm_campaign=yelp_api_v3&utm_medium=api_v3_business_search&utm_source=45kqYYhpW-MD2mr1wGE7bw,+16174228211,3179.8152805453356,,4vy0BhgGOvrZAWTeBM--lA,02129,Charlestown,MA,5 Austin St,,,5 Austin St,42.376158,-71.065836,banks,NA,NA
communications,Rockland Trust,https://www.yelp.com/biz/rockland-trust-allston-2?adjust_creative=45kqYYhpW-MD2mr1wGE7bw&utm_campaign=yelp_api_v3&utm_medium=api_v3_business_search&utm_source=45kqYYhpW-MD2mr1wGE7bw,+16177827870,5121.40040204118,,lBxAWmdwMGF-1YR47hnJxA,02134,Allston,MA,229 N Harvard St,,,229 N Harvard St,42.36173,-71.13067,banks,NA,NA
communications,Radio Disney Am 1260,https://www.yelp.com/biz/radio-disney-am-1260-allston?adjust_creative=45kqYYhpW-MD2mr1wGE7bw&utm_campaign=yelp_api_v3&utm_medium=api_v3_business_search&utm_source=45kqYYhpW-MD2mr1wGE7bw,+16177870146,5486.011412116988,,7aB3ch2fs-0UhcgWYXItUQ,02134,Allston,MA,226 Lincoln St,,,226 Lincoln St,42.35781,-71.13655,radiostations,NA,NA
communications,Cambridge Savings Bank,https://www.yelp.com/biz/cambridge-savings-bank-arlington-4?adjust_creative=45kqYYhpW-MD2mr1wGE7bw&utm_campaign=yelp_api_v3&utm_medium=api_v3_business_search&utm_source=45kqYYhpW-MD2mr1wGE7bw,+16174414203,8628.118077985182,,AbFNWXI4kvSRszkvH3T0Yw,02474,Arlington,MA,188 Massachusetts Ave,,,188 Massachusetts Ave,42.405237722443,-71.141928059767,banks,NA,NA
communications,Santander,https://www.yelp.com/biz/santander-cambridge-2?adjust_creative=45kqYYhpW-MD2mr1wGE7bw&utm_campaign=yelp_api_v3&utm_medium=api_v3_business_search&utm_source=45kqYYhpW-MD2mr1wGE7bw,+16172349301,3107.507908113732,,2M62N_CaEawTv15fyMTNlQ,02139,Cambridge,MA,515 Massachusetts Ave,,,515 Massachusetts Ave,42.364286,-71.1018213,banks,NA,NA
communications,Century Bank,https://www.yelp.com/biz/century-bank-medford-2?adjust_creative=45kqYYhpW-MD2mr1wGE7bw&utm_campaign=yelp_api_v3&utm_medium=api_v3_business_search&utm_source=45kqYYhpW-MD2mr1wGE7bw,+17813934160,8600.17572223825,,iMltJ-UdQCjy6ojDMs50Ug,02155,Medford,MA,400 Mystic Ave,,,400 Mystic Ave,42.419395,-71.110994,banks,NA,NA
communications,USALLIANCE Financial,https://www.yelp.com/biz/usalliance-financial-medford?adjust_creative=45kqYYhpW-MD2mr1wGE7bw&utm_campaign=yelp_api_v3&utm_medium=api_v3_business_search&utm_source=45kqYYhpW-MD2mr1wGE7bw,+18004312754,6194.965361147441,,6BkNHIcCqsbbPx56mazvew,02155,Medford,MA,71 Station Landing,,,71 Station Landing,42.4030997,-71.080859,banks,NA,NA
communications,Bank of America,https://www.yelp.com/biz/bank-of-america-quincy-4?adjust_creative=45kqYYhpW-MD2mr1wGE7bw&utm_campaign=yelp_api_v3&utm_medium=api_v3_business_search&utm_source=45kqYYhpW-MD2mr1wGE7bw,+18004321000,12289.714676005777,,FoiAY3J4iSpIoXNX5R_p2g,02169,Quincy,MA,1400 Hancock St,,,1400 Hancock St,42.249762,-71.002358,banks,NA,NA
communications,Bank of America,https://www.yelp.com/biz/bank-of-america-boston-29?adjust_creative=45kqYYhpW-MD2mr1wGE7bw&utm_campaign=yelp_api_v3&utm_medium=api_v3_business_search&utm_source=45kqYYhpW-MD2mr1wGE7bw,+16175366985,982.6025266001878,,jGfoFzSZ6WCNI_-JvmYzOA,02116,Boston,MA,855 Boylston St,,,855 Boylston St,42.34881,-71.083128,banks,NA,NA
communications,Santander,https://www.yelp.com/biz/santander-brookline?adjust_creative=45kqYYhpW-MD2mr1wGE7bw&utm_campaign=yelp_api_v3&utm_medium=api_v3_business_search&utm_source=45kqYYhpW-MD2mr1wGE7bw,+16172327417,4211.201341344456,,RB-1zyksbKluq2KCZfKIYw,02446,Brookline,MA,1341 Beacon St,,,1341 Beacon St,42.3415899,-71.12177,banks,NA,NA
communications,Winter Hill Bank,https://www.yelp.com/biz/winter-hill-bank-somerville?adjust_creative=45kqYYhpW-MD2mr1wGE7bw&utm_campaign=yelp_api_v3&utm_medium=api_v3_business_search&utm_source=45kqYYhpW-MD2mr1wGE7bw,+16176293301,5387.878101735052,,iwaTOqlIB0CazILzHU3_VA,02145,Somerville,MA,342 Broadway,,,342 Broadway,42.39309,-71.09493,banks,NA,NA
communications,Citizens Bank,https://www.yelp.com/biz/citizens-bank-jamaica-plain?adjust_creative=45kqYYhpW-MD2mr1wGE7bw&utm_campaign=yelp_api_v3&utm_medium=api_v3_business_search&utm_source=45kqYYhpW-MD2mr1wGE7bw,+16175221611,5345.583606089558,,5n8Sy9noFxDtbuw70lRSUw,02130,Jamaica Plain,MA,696 Centre St,,,696 Centre St,42.31175,-71.11409,banks,NA,NA
communications,Webster Bank,https://www.yelp.com/biz/webster-bank-cambridge?adjust_creative=45kqYYhpW-MD2mr1wGE7bw&utm_campaign=yelp_api_v3&utm_medium=api_v3_business_search&utm_source=45kqYYhpW-MD2mr1wGE7bw,+16175768790,5880.470446948134,,pKpwgJO_uyJ5F68NN7gyhg,02140,Cambridge,MA,1815 Massachusetts Ave,,,1815 Massachusetts Ave,42.3872798948279,-71.1189308562754,banks,NA,NA
communications,Citizens Bank,https://www.yelp.com/biz/citizens-bank-boston-18?adjust_creative=45kqYYhpW-MD2mr1wGE7bw&utm_campaign=yelp_api_v3&utm_medium=api_v3_business_search&utm_source=45kqYYhpW-MD2mr1wGE7bw,+16174228573,1549.4079977908298,,vY_ZdRu0dDR1Gossov0GTA,02108,Boston,MA,1 Center Plz,,,1 Center Plz,42.359032,-71.060008,banks,NA,NA
communications,Bank of America,https://www.yelp.com/biz/bank-of-america-jamaica-plain?adjust_creative=45kqYYhpW-MD2mr1wGE7bw&utm_campaign=yelp_api_v3&utm_medium=api_v3_business_search&utm_source=45kqYYhpW-MD2mr1wGE7bw,+16175224800,5322.200426290877,,59tPx-iZQRATM2BIDtZcLQ,02130,Jamaica Plain,MA,677 Centre St,,,677 Centre St,42.31221,-71.11453,banks,NA,NA
communications,Eastern Bank,https://www.yelp.com/biz/eastern-bank-brookline?adjust_creative=45kqYYhpW-MD2mr1wGE7bw&utm_campaign=yelp_api_v3&utm_medium=api_v3_business_search&utm_source=45kqYYhpW-MD2mr1wGE7bw,+16177392010,4237.570981600426,,FwI01hO068hrbgg3DGD0Dg,02446,Brookline,MA,301 Harvard Street,,,301 Harvard Street,42.3432884,-71.1224136,banks,NA,NA
communications,Bank of America,https://www.yelp.com/biz/bank-of-america-brighton-2?adjust_creative=45kqYYhpW-MD2mr1wGE7bw&utm_campaign=yelp_api_v3&utm_medium=api_v3_business_search&utm_source=45kqYYhpW-MD2mr1wGE7bw,+16177893789,6784.262202881284,,nSH-LxgPWfYLe_o-DehMqQ,02135,Brighton,MA,5 Chestnut Hill Ave,,,5 Chestnut Hill Ave,42.348754,-71.153793,banks,NA,NA
communications,TD BANK,https://www.yelp.com/biz/td-bank-quincy?adjust_creative=45kqYYhpW-MD2mr1wGE7bw&utm_campaign=yelp_api_v3&utm_medium=api_v3_business_search&utm_source=45kqYYhpW-MD2mr1wGE7bw,+16173286142,11128.662083155847,,FeTim8WVZY6GILC74vz-ow,02169,Quincy,MA,516 Adams St,,,516 Adams St,42.25341,-71.026418,banks,NA,NA
communications,Members Plus Credit Union,https://www.yelp.com/biz/members-plus-credit-union-medford?adjust_creative=45kqYYhpW-MD2mr1wGE7bw&utm_campaign=yelp_api_v3&utm_medium=api_v3_business_search&utm_source=45kqYYhpW-MD2mr1wGE7bw,+17819051500,8512.765124743832,,ywltJbhSOAttVjLB5tC8iQ,02155,Medford,MA,29 High St,,,29 High St,42.4186941,-71.1105027,banks,NA,NA
communications,Sovereign Bank,https://www.yelp.com/biz/sovereign-bank-boston-8?adjust_creative=45kqYYhpW-MD2mr1wGE7bw&utm_campaign=yelp_api_v3&utm_medium=api_v3_business_search&utm_source=45kqYYhpW-MD2mr1wGE7bw,+16174230879,891.7952305167972,,BrREWuDWsMN7vnNS7iuiZA,02111,Boston,MA,61 Arlington St,,,61 Arlington St,42.351323,-71.061467,banks,NA,NA
communications,Citizens Bank,https://www.yelp.com/biz/citizens-bank-somerville-6?adjust_creative=45kqYYhpW-MD2mr1wGE7bw&utm_campaign=yelp_api_v3&utm_medium=api_v3_business_search&utm_source=45kqYYhpW-MD2mr1wGE7bw,+16176293898,6616.939529282928,,U0-sEqRMvTP0--5adGXsKA,02145,Somerville,MA,212 Elm St,,,212 Elm St,42.394312,-71.121556,banks,NA,NA
communications,Td Bank,https://www.yelp.com/biz/td-bank-chelsea?adjust_creative=45kqYYhpW-MD2mr1wGE7bw&utm_campaign=yelp_api_v3&utm_medium=api_v3_business_search&utm_source=45kqYYhpW-MD2mr1wGE7bw,+16178842650,5868.488571672911,,74zkDUycMRDADX8gcAFyng,02150,Chelsea,MA,457 Broadway,,,457 Broadway,42.3927821,-71.0338361,banks,NA,NA
communications,Sovereign Bank,https://www.yelp.com/biz/sovereign-bank-boston-4?adjust_creative=45kqYYhpW-MD2mr1wGE7bw&utm_campaign=yelp_api_v3&utm_medium=api_v3_business_search&utm_source=45kqYYhpW-MD2mr1wGE7bw,+16172661781,861.1687413323349,,S27LjZl2hhKD7n-uUJI4JA,02199,Boston,MA,111 Huntington Ave,,,111 Huntington Ave,42.3465965688229,-71.0803232342005,banks,NA,NA
communications,Eastern Bank,https://www.yelp.com/biz/eastern-bank-medford-2?adjust_creative=45kqYYhpW-MD2mr1wGE7bw&utm_campaign=yelp_api_v3&utm_medium=api_v3_business_search&utm_source=45kqYYhpW-MD2mr1wGE7bw,+17813954899,7052.506625744211,,BnT6KJNfEzp_uNXDea5_Kg,02155,Medford,MA,53 Locust Street,,,53 Locust Street,42.409145236948,-71.0932626554755,banks,NA,NA
communications,TD Banknorth,https://www.yelp.com/biz/td-banknorth-brighton?adjust_creative=45kqYYhpW-MD2mr1wGE7bw&utm_campaign=yelp_api_v3&utm_medium=api_v3_business_search&utm_source=45kqYYhpW-MD2mr1wGE7bw,+16177830264,6562.878601428573,,rELBErPB7SLaYgHiQWEtZA,02135,Brighton,MA,298 Washingston St,,,298 Washingston St,42.34879,-71.15101,banks,NA,NA
communications,"MMTV - Melrose Massachusetts Television, Inc.",https://www.yelp.com/biz/mmtv-melrose-massachusetts-television-inc-melrose?adjust_creative=45kqYYhpW-MD2mr1wGE7bw&utm_campaign=yelp_api_v3&utm_medium=api_v3_business_search&utm_source=45kqYYhpW-MD2mr1wGE7bw,+17816656688,11652.740552482432,,Nprg30Zt94TKO8q5f7-G9g,02176,Melrose,MA,360 Main St,,,360 Main St,42.45257,-71.06721,televisionstations,NA,NA
communications,TD Bank,https://www.yelp.com/biz/td-bank-cambridge?adjust_creative=45kqYYhpW-MD2mr1wGE7bw&utm_campaign=yelp_api_v3&utm_medium=api_v3_business_search&utm_source=45kqYYhpW-MD2mr1wGE7bw,+16174983294,7515.786580225149,,A0-rIgrn7-oWfG_zRtVUJQ,02138,Cambridge,MA,235 Alewife Brook Pkwy,,,235 Alewife Brook Pkwy,42.3891026817228,-71.1437040898506,banks,NA,NA
communications,Winchester Co-Operative Bank,https://www.yelp.com/biz/winchester-co-operative-bank-winchester?adjust_creative=45kqYYhpW-MD2mr1wGE7bw&utm_campaign=yelp_api_v3&utm_medium=api_v3_business_search&utm_source=45kqYYhpW-MD2mr1wGE7bw,+17817293620,12919.871068829489,,dA3EapiZqjP_aPOJbHTpRw,01890,Winchester,MA,19 Church St,,,19 Church St,42.4529724121094,-71.1382675170898,banks,NA,NA
communications,Citizens Bank,https://www.yelp.com/biz/citizens-bank-roxbury-crossing?adjust_creative=45kqYYhpW-MD2mr1wGE7bw&utm_campaign=yelp_api_v3&utm_medium=api_v3_business_search&utm_source=45kqYYhpW-MD2mr1wGE7bw,+16175668076,3173.0002905872243,,0tS6aiGNQ4QVIVtSbvhHKA,02120,Roxbury Crossing,MA,1628 Tremont St,,,1628 Tremont St,42.3337866481668,-71.1038286682895,banks,NA,NA
communications,Bank of America,https://www.yelp.com/biz/bank-of-america-cambridge?adjust_creative=45kqYYhpW-MD2mr1wGE7bw&utm_campaign=yelp_api_v3&utm_medium=api_v3_business_search&utm_source=45kqYYhpW-MD2mr1wGE7bw,+16172250086,2294.718268604255,,9T99hy-s8MkCuPhNjsFeUQ,02139,Cambridge,MA,84 Massachusetts Ave,"MIT Student Center, Bldg W20",,84 Massachusetts Ave,42.35888,-71.09462,banks,NA,NA
communications,Hertz Rent A Car,https://www.yelp.com/biz/hertz-rent-a-car-boston-4?adjust_creative=45kqYYhpW-MD2mr1wGE7bw&utm_campaign=yelp_api_v3&utm_medium=api_v3_business_search&utm_source=45kqYYhpW-MD2mr1wGE7bw,+16174346885,1482.7153108071598,,NDHhNeWyrNyKH3di-uTVdg,02110,Boston,MA,100 Federal Street Bsmt,,,100 Federal Street Bsmt,42.35505,-71.05584,banks,NA,NA
communications,Rockland Trust,https://www.yelp.com/biz/rockland-trust-brighton?adjust_creative=45kqYYhpW-MD2mr1wGE7bw&utm_campaign=yelp_api_v3&utm_medium=api_v3_business_search&utm_source=45kqYYhpW-MD2mr1wGE7bw,+16172540813,6778.128855748139,,ytH82J9LRstNSXWXYskWCw,02135,Brighton,MA,435 Market St,,,435 Market St,42.3495935,-71.1534972,banks,NA,NA
communications,Citizens Bank,https://www.yelp.com/biz/citizens-bank-quincy-5?adjust_creative=45kqYYhpW-MD2mr1wGE7bw&utm_campaign=yelp_api_v3&utm_medium=api_v3_business_search&utm_source=45kqYYhpW-MD2mr1wGE7bw,+16174712976,9290.902043217062,,s_6peloFoW-m_A1iacFcog,02171,Quincy,MA,65 Newport Ave,,,65 Newport Ave,42.2720399,-71.0269,banks,NA,NA
communications,Citizens Bank,https://www.yelp.com/biz/citizens-bank-east-boston?adjust_creative=45kqYYhpW-MD2mr1wGE7bw&utm_campaign=yelp_api_v3&utm_medium=api_v3_business_search&utm_source=45kqYYhpW-MD2mr1wGE7bw,+16175675353,4058.193907297431,,i10OvUGA7gnkWoFS9A3l-Q,02128,East Boston,MA,26 Central Sq,,,26 Central Sq,42.3751078915883,-71.0388288074409,banks,NA,NA
communications,Energy Credit Union,https://www.yelp.com/biz/energy-credit-union-boston?adjust_creative=45kqYYhpW-MD2mr1wGE7bw&utm_campaign=yelp_api_v3&utm_medium=api_v3_business_search&utm_source=45kqYYhpW-MD2mr1wGE7bw,+16173251999,11186.570298770108,,ga5-EUND8JvY3yULmvJe4g,02132,Boston,MA,156 Spring St,,,156 Spring St,42.2758636474609,-71.1664962768555,banks,NA,NA
communications,Bank of America,https://www.yelp.com/biz/bank-of-america-revere?adjust_creative=45kqYYhpW-MD2mr1wGE7bw&utm_campaign=yelp_api_v3&utm_medium=api_v3_business_search&utm_source=45kqYYhpW-MD2mr1wGE7bw,+17814850447,8970.779370173625,,UWCqpaxjJ2FLjlmrZdkjaQ,02151,Revere,MA,25 American Legion Hwy,,,25 American Legion Hwy,42.4100189,-71.0015106,banks,NA,NA
communications,First Priority Credit Union,https://www.yelp.com/biz/first-priority-credit-union-boston?adjust_creative=45kqYYhpW-MD2mr1wGE7bw&utm_campaign=yelp_api_v3&utm_medium=api_v3_business_search&utm_source=45kqYYhpW-MD2mr1wGE7bw,+18009497628,5507.8059084456845,,LHmcuphIoboV5r2SV_8BWg,02128,Boston,MA,100 Swift St,,,100 Swift St,42.3815833032131,-71.0226429998875,banks,NA,NA
communications,East Boston Savings Bank,https://www.yelp.com/biz/east-boston-savings-bank-east-boston-3?adjust_creative=45kqYYhpW-MD2mr1wGE7bw&utm_campaign=yelp_api_v3&utm_medium=api_v3_business_search&utm_source=45kqYYhpW-MD2mr1wGE7bw,+18006573272,3647.8350320608165,,MkR9TaLMU8VUaxTGtMgaYw,02128,East Boston,MA,10 Meridian St,,,10 Meridian St,42.3705725,-71.0392318,banks,NA,NA
communications,Bank of America,https://www.yelp.com/biz/bank-of-america-cambridge-10?adjust_creative=45kqYYhpW-MD2mr1wGE7bw&utm_campaign=yelp_api_v3&utm_medium=api_v3_business_search&utm_source=45kqYYhpW-MD2mr1wGE7bw,+16175885251,5926.714746773355,,CIcCBvSbxK3TVXnXDxSrGw,02140,Cambridge,MA,1847 Massachusetts Ave,,,1847 Massachusetts Ave,42.38786,-71.1187,banks,NA,NA
communications,TD Bank,https://www.yelp.com/biz/td-bank-revere?adjust_creative=45kqYYhpW-MD2mr1wGE7bw&utm_campaign=yelp_api_v3&utm_medium=api_v3_business_search&utm_source=45kqYYhpW-MD2mr1wGE7bw,+17812842650,8507.485028018746,,GvFoCHV1_DRrWBZxg9-1og,02151,Revere,MA,411 Broadway,,,411 Broadway,42.410464243602,-71.011738389162,banks,NA,NA
communications,Blue Hills Bank,https://www.yelp.com/biz/blue-hills-bank-west-roxbury?adjust_creative=45kqYYhpW-MD2mr1wGE7bw&utm_campaign=yelp_api_v3&utm_medium=api_v3_business_search&utm_source=45kqYYhpW-MD2mr1wGE7bw,+16173253437,9917.637117051181,,4XnQI1bhfW-iLHrTX36ToA,02132,West Roxbury,MA,1920 Centre St,,,1920 Centre St,42.284583,-71.156276,banks,NA,NA
communications,E*TRADE,https://www.yelp.com/biz/e-trade-boston-2?adjust_creative=45kqYYhpW-MD2mr1wGE7bw&utm_campaign=yelp_api_v3&utm_medium=api_v3_business_search&utm_source=45kqYYhpW-MD2mr1wGE7bw,+18667890721,1392.9374399640653,,ykfSPe8JzfvMFCzJTJILiQ,02110,Boston,MA,70 Franklin St,,,70 Franklin St,42.35567,-71.05816,banks,NA,NA
communications,Citizens Bank,https://www.yelp.com/biz/citizens-bank-brighton-5?adjust_creative=45kqYYhpW-MD2mr1wGE7bw&utm_campaign=yelp_api_v3&utm_medium=api_v3_business_search&utm_source=45kqYYhpW-MD2mr1wGE7bw,+16172785800,5804.18745923902,,76W404v2G1W-7keigqmF1A,02135,Brighton,MA,35 Washington St,,,35 Washington St,42.3433599,-71.14131,banks,NA,NA
communications,Bank of America,https://www.yelp.com/biz/bank-of-america-boston-8?adjust_creative=45kqYYhpW-MD2mr1wGE7bw&utm_campaign=yelp_api_v3&utm_medium=api_v3_business_search&utm_source=45kqYYhpW-MD2mr1wGE7bw,,753.7306148377049,,f1NuRikaHV1PuG5LzXQzOQ,02116,Boston,MA,465 Columbus Ave,,,465 Columbus Ave,42.3435532697801,-71.0783458764374,banks,NA,NA
communications,Santander Bank,https://www.yelp.com/biz/santander-bank-boston-8?adjust_creative=45kqYYhpW-MD2mr1wGE7bw&utm_campaign=yelp_api_v3&utm_medium=api_v3_business_search&utm_source=45kqYYhpW-MD2mr1wGE7bw,+16172922711,899.1276971335913,,jZACCzJc6_fDUbX2b59pVw,02111,Boston,MA,61 Harrison Ave,,,61 Harrison Ave,42.3513699079709,-71.0613985732198,banks,NA,NA
communications,East Boston Savings Bank,https://www.yelp.com/biz/east-boston-savings-bank-winthrop-2?adjust_creative=45kqYYhpW-MD2mr1wGE7bw&utm_campaign=yelp_api_v3&utm_medium=api_v3_business_search&utm_source=45kqYYhpW-MD2mr1wGE7bw,+18006573272,7516.839654799631,,PAnL_kTcP6YfbRNmAJJEng,02152,Winthrop,MA,15 Bartlett Rd,,,15 Bartlett Rd,42.37426,-70.98712,banks,NA,NA
communications,People's Federal Savings Bank,https://www.yelp.com/biz/peoples-federal-savings-bank-west-roxbury?adjust_creative=45kqYYhpW-MD2mr1wGE7bw&utm_campaign=yelp_api_v3&utm_medium=api_v3_business_search&utm_source=45kqYYhpW-MD2mr1wGE7bw,+16173639555,9902.645219587492,,mLL8N9qPlUNCFcpRfF_0Sw,02132,West Roxbury,MA,1905 Centre St,,,1905 Centre St,42.28515,-71.15672,banks,NA,NA
communications,Eastern Bank,https://www.yelp.com/biz/eastern-bank-jamaica-plain-2?adjust_creative=45kqYYhpW-MD2mr1wGE7bw&utm_campaign=yelp_api_v3&utm_medium=api_v3_business_search&utm_source=45kqYYhpW-MD2mr1wGE7bw,+16179719550,5342.140890776223,,l1QsE18UusZjEyquoYxzJw,02130,Jamaica Plain,MA,687 Centre Street,,,687 Centre Street,42.3119867,-71.1144247,banks,NA,NA
communications,Citizens Bank,https://www.yelp.com/biz/citizens-bank-medford-11?adjust_creative=45kqYYhpW-MD2mr1wGE7bw&utm_campaign=yelp_api_v3&utm_medium=api_v3_business_search&utm_source=45kqYYhpW-MD2mr1wGE7bw,+17816480885,9683.553654254018,,kbJzG7uYnTutGyZgu1qUqw,02155,Medford,MA,501 High St,,,501 High St,42.421557,-71.13402,banks,NA,NA
communications,Winter Hill Bank,https://www.yelp.com/biz/winter-hill-bank-somerville-3?adjust_creative=45kqYYhpW-MD2mr1wGE7bw&utm_campaign=yelp_api_v3&utm_medium=api_v3_business_search&utm_source=45kqYYhpW-MD2mr1wGE7bw,+16176293330,6534.4832634167215,,g0AjhcxvQCqR773jt2GR4w,02144,Somerville,MA,5 Cutter Ave,,,5 Cutter Ave,42.3942372947931,-71.1203934252262,banks,NA,NA
communications,Bank of America,https://www.yelp.com/biz/bank-of-america-boston-30?adjust_creative=45kqYYhpW-MD2mr1wGE7bw&utm_campaign=yelp_api_v3&utm_medium=api_v3_business_search&utm_source=45kqYYhpW-MD2mr1wGE7bw,+16174240187,3035.600113274285,,MpsXgHqxSXNorTuyTbFlpQ,02215,Boston,MA,771 Commonwealth Ave,,,771 Commonwealth Ave,42.3510599,-71.10795,banks,NA,NA
communications,Sovereign Bank,https://www.yelp.com/biz/sovereign-bank-somerville?adjust_creative=45kqYYhpW-MD2mr1wGE7bw&utm_campaign=yelp_api_v3&utm_medium=api_v3_business_search&utm_source=45kqYYhpW-MD2mr1wGE7bw,+16176235875,6741.832232901203,,ZroxvCwV1w2kEbQ5s9BzWQ,02144,Somerville,MA,403 Highland Ave,,Davis Square,403 Highland Ave,42.395928427577,-71.1208876222372,banks,NA,NA
communications,Colonial Federal Savings Bank,https://www.yelp.com/biz/colonial-federal-savings-bank-quincy?adjust_creative=45kqYYhpW-MD2mr1wGE7bw&utm_campaign=yelp_api_v3&utm_medium=api_v3_business_search&utm_source=45kqYYhpW-MD2mr1wGE7bw,+16174710750,9936.33658151374,,PmIAnd8z2gXY-pVtqKSQ2w,02170,Quincy,MA,15 Beach St,,,15 Beach St,42.2683231,-71.0161181,banks,NA,NA
communications,Members Plus Credit Union,https://www.yelp.com/biz/members-plus-credit-union-dorchester-2?adjust_creative=45kqYYhpW-MD2mr1wGE7bw&utm_campaign=yelp_api_v3&utm_medium=api_v3_business_search&utm_source=45kqYYhpW-MD2mr1wGE7bw,+16172656967,7323.378650681312,,zyCUBfCjEidb3nMbUDWyfA,02124,Dorchester,MA,494 Gallivan Blvd,,,494 Gallivan Blvd,42.28298,-71.056551,banks,NA,NA
communications,Bank of America,https://www.yelp.com/biz/bank-of-america-north-quincy?adjust_creative=45kqYYhpW-MD2mr1wGE7bw&utm_campaign=yelp_api_v3&utm_medium=api_v3_business_search&utm_source=45kqYYhpW-MD2mr1wGE7bw,+16177738100,9203.927177102303,,2JATDX-9w948nAIng-I9Kw,02171,North Quincy,MA,440 Hancock St,Ste 101,,440 Hancock St,42.27273,-71.02383,banks,NA,NA
communications,Bank of America,https://www.yelp.com/biz/bank-of-america-dorchester?adjust_creative=45kqYYhpW-MD2mr1wGE7bw&utm_campaign=yelp_api_v3&utm_medium=api_v3_business_search&utm_source=45kqYYhpW-MD2mr1wGE7bw,+16174456548,2565.337991257736,,r4CCtfWT8R9bYoczAuzzOQ,02125,Dorchester,MA,1104 Massachusetts Ave,,,1104 Massachusetts Ave,42.3256532102823,-71.0657977312803,banks,NA,NA
communications,Century Bank,https://www.yelp.com/biz/century-bank-boston-5?adjust_creative=45kqYYhpW-MD2mr1wGE7bw&utm_campaign=yelp_api_v3&utm_medium=api_v3_business_search&utm_source=45kqYYhpW-MD2mr1wGE7bw,+16173673712,1879.7207357675532,,LCrSePJxV-42YYSmIcFatQ,02109,Boston,MA,136 State St,,,136 State St,42.3592439,-71.0543551,banks,NA,NA
communications,East Boston Savings Bank,https://www.yelp.com/biz/east-boston-savings-bank-boston-7?adjust_creative=45kqYYhpW-MD2mr1wGE7bw&utm_campaign=yelp_api_v3&utm_medium=api_v3_business_search&utm_source=45kqYYhpW-MD2mr1wGE7bw,+18006573272,629.2466451021659,,znyb5n0hv6ZU0fgxygCspw,02118,Boston,MA,1134 Washington St,,,1134 Washington St,42.34387,-71.06576,banks,NA,NA
communications,TD Bank,https://www.yelp.com/biz/td-bank-boston-7?adjust_creative=45kqYYhpW-MD2mr1wGE7bw&utm_campaign=yelp_api_v3&utm_medium=api_v3_business_search&utm_source=45kqYYhpW-MD2mr1wGE7bw,+16172790513,2362.4057088946065,,jlJ5a0RD7t2EzVEtQCX15w,02215,Boston,MA,1333 Boylston St,,,1333 Boylston St,42.3443048577199,-71.0995878651738,banks,NA,NA
communications,Circle Lending,https://www.yelp.com/biz/circle-lending-cambridge-2?adjust_creative=45kqYYhpW-MD2mr1wGE7bw&utm_campaign=yelp_api_v3&utm_medium=api_v3_business_search&utm_source=45kqYYhpW-MD2mr1wGE7bw,+16178590099,2513.748088674633,,EjorD6ltxxD6L1z2VBAZeQ,02141,Cambridge,MA,2 Canal Park,,,2 Canal Park,42.3681564,-71.0746556,banks,NA,NA
communications,Bank of America,https://www.yelp.com/biz/bank-of-america-medford-3?adjust_creative=45kqYYhpW-MD2mr1wGE7bw&utm_campaign=yelp_api_v3&utm_medium=api_v3_business_search&utm_source=45kqYYhpW-MD2mr1wGE7bw,+18008414000,6901.215461216399,,DpbLNstoj5FHjDsgexIFLA,02155,Medford,MA,278 Mystic Ave,,,278 Mystic Ave,42.4059,-71.10094,banks,NA,NA
communications,Bank of America,https://www.yelp.com/biz/bank-of-america-quincy-5?adjust_creative=45kqYYhpW-MD2mr1wGE7bw&utm_campaign=yelp_api_v3&utm_medium=api_v3_business_search&utm_source=45kqYYhpW-MD2mr1wGE7bw,+16177735960,10651.890386095629,,CAqaOEe2zeZJ2TXtOqk4fw,02169,Quincy,MA,690 Adams St,,,690 Adams St,42.2560005,-71.0344925,banks,NA,NA
communications,Sovereign Bank,https://www.yelp.com/biz/sovereign-bank-somerville-2?adjust_creative=45kqYYhpW-MD2mr1wGE7bw&utm_campaign=yelp_api_v3&utm_medium=api_v3_business_search&utm_source=45kqYYhpW-MD2mr1wGE7bw,+16176235224,4597.253190865736,,mMO6FMPhhV6OihjZZMU41w,02145,Somerville,MA,125 Broadway,,,125 Broadway,42.3880882263184,-71.0839920043945,banks,NA,NA
communications,Eastern Bank,https://www.yelp.com/biz/eastern-bank-quincy-2?adjust_creative=45kqYYhpW-MD2mr1wGE7bw&utm_campaign=yelp_api_v3&utm_medium=api_v3_business_search&utm_source=45kqYYhpW-MD2mr1wGE7bw,+16176891723,10105.481384864883,,_w1AP5SXCTZsqrxVG-hkrw,02170,Quincy,MA,34 Chapman St,,,34 Chapman St,42.26639,-71.01664,banks,NA,NA
communications,Salem Five Bank,https://www.yelp.com/biz/salem-five-bank-malden?adjust_creative=45kqYYhpW-MD2mr1wGE7bw&utm_campaign=yelp_api_v3&utm_medium=api_v3_business_search&utm_source=45kqYYhpW-MD2mr1wGE7bw,+17813217433,7758.100535165076,,Fh-IZJCFOaVL0g5eLQ-uPg,02148,Malden,MA,90 Highland Ave,,,90 Highland Ave,42.417326,-71.0800158,banks,NA,NA
communications,Rockland Trust,https://www.yelp.com/biz/rockland-trust-boston-2?adjust_creative=45kqYYhpW-MD2mr1wGE7bw&utm_campaign=yelp_api_v3&utm_medium=api_v3_business_search&utm_source=45kqYYhpW-MD2mr1wGE7bw,+16177668783,2116.9848300983713,,9SSWHq46Wy9AgsPEU71tsA,02210,Boston,MA,87 Seaport Blvd,,,87 Seaport Blvd,42.3512316593228,-71.0444847086215,banks,NA,NA
communications,Citizens Bank,https://www.yelp.com/biz/citizens-bank-dorchester-3?adjust_creative=45kqYYhpW-MD2mr1wGE7bw&utm_campaign=yelp_api_v3&utm_medium=api_v3_business_search&utm_source=45kqYYhpW-MD2mr1wGE7bw,+16174365664,6060.142271111054,,LKlG7P96LeOLKXtkpCnwqw,02122,Dorchester,MA,731 Morrissey Blvd,,,731 Morrissey Blvd,42.29593667,-71.048739,banks,NA,NA
communications,East Boston Savings Bank,https://www.yelp.com/biz/east-boston-savings-bank-everett?adjust_creative=45kqYYhpW-MD2mr1wGE7bw&utm_campaign=yelp_api_v3&utm_medium=api_v3_business_search&utm_source=45kqYYhpW-MD2mr1wGE7bw,+18006573272,6444.6991544432285,,frsBmiMgMSkKBQURd8gi3w,02149,Everett,MA,1755 Revere Beach Pkwy,,,1755 Revere Beach Pkwy,42.402464,-71.0450089,banks,NA,NA
communications,Bank of America,https://www.yelp.com/biz/bank-of-america-cambridge-6?adjust_creative=45kqYYhpW-MD2mr1wGE7bw&utm_campaign=yelp_api_v3&utm_medium=api_v3_business_search&utm_source=45kqYYhpW-MD2mr1wGE7bw,+16178683543,3431.2479199534537,,t0AQjdZ93ftG-1_PjjMVWw,02139,Cambridge,MA,727 Massachusetts Ave,,,727 Massachusetts Ave,42.3663,-71.10467,banks,NA,NA
communications,Leader Bank,https://www.yelp.com/biz/leader-bank-arlington-11?adjust_creative=45kqYYhpW-MD2mr1wGE7bw&utm_campaign=yelp_api_v3&utm_medium=api_v3_business_search&utm_source=45kqYYhpW-MD2mr1wGE7bw,+17816418800,12035.459754823814,,dSiTh_jBIctynkC19ZXIwA,02476,Arlington,MA,1201 Massachusetts Ave,,,1201 Massachusetts Ave,42.4235819,-71.1759282,banks,NA,NA
communications,Bank of America,https://www.yelp.com/biz/bank-of-america-winthrop?adjust_creative=45kqYYhpW-MD2mr1wGE7bw&utm_campaign=yelp_api_v3&utm_medium=api_v3_business_search&utm_source=45kqYYhpW-MD2mr1wGE7bw,+16175394905,7484.353169214612,,mfalc-jtYDdftkEqdLeQgg,02152,Winthrop,MA,25 Bartlett Rd,,,25 Bartlett Rd,42.373908996582,-70.9872970581055,banks,NA,NA
communications,Brookline Bank,https://www.yelp.com/biz/brookline-bank-medford?adjust_creative=45kqYYhpW-MD2mr1wGE7bw&utm_campaign=yelp_api_v3&utm_medium=api_v3_business_search&utm_source=45kqYYhpW-MD2mr1wGE7bw,+17813932500,8519.290871648569,,941lOjpUx7c8mzB1LokGhw,02155,Medford,MA,60 High St,,,60 High St,42.4184761047363,-71.1113586425781,banks,NA,NA
communications,Peoples Federal Savings Bank,https://www.yelp.com/biz/peoples-federal-savings-bank-jamaica-plain?adjust_creative=45kqYYhpW-MD2mr1wGE7bw&utm_campaign=yelp_api_v3&utm_medium=api_v3_business_search&utm_source=45kqYYhpW-MD2mr1wGE7bw,+16179835707,5434.0621180476855,,NdHFoLBj9Z3lXrVHY2lAvw,02130,Jamaica Plain,MA,725 Centre St,,,725 Centre St,42.31108,-71.1148,banks,NA,NA
communications,AMP 103.3 FM,https://www.yelp.com/biz/amp-103-3-fm-brighton?adjust_creative=45kqYYhpW-MD2mr1wGE7bw&utm_campaign=yelp_api_v3&utm_medium=api_v3_business_search&utm_source=45kqYYhpW-MD2mr1wGE7bw,+16177877500,6460.845265637464,,pJCZM_5n9F9X4SeJqxrrPQ,02135,Brighton,MA,83 Leo M Birmingham Pkw,,,83 Leo M Birmingham Pkw,42.3592071533203,-71.1482391357422,radiostations,NA,NA
communications,Members Plus Credit Union,https://www.yelp.com/biz/members-plus-credit-union-everett?adjust_creative=45kqYYhpW-MD2mr1wGE7bw&utm_campaign=yelp_api_v3&utm_medium=api_v3_business_search&utm_source=45kqYYhpW-MD2mr1wGE7bw,+16173899000,7468.831252239321,,ZZjBs8lq0kOaeoXrM06rZw,02149,Everett,MA,650 Broadway,,,650 Broadway,42.413169,-71.0500968,banks,NA,NA
communications,Santander Bank,https://www.yelp.com/biz/santander-bank-boston-10?adjust_creative=45kqYYhpW-MD2mr1wGE7bw&utm_campaign=yelp_api_v3&utm_medium=api_v3_business_search&utm_source=45kqYYhpW-MD2mr1wGE7bw,+16172650484,7252.112912451899,,LMfwcx2muSkDPrirVe17yg,02122,Boston,MA,780 Gallivan Blvd,,,780 Gallivan Blvd,42.2857701216361,-71.0441700741649,banks,NA,NA
communications,Somerville's Credit Union,https://www.yelp.com/biz/somervilles-credit-union-somerville?adjust_creative=45kqYYhpW-MD2mr1wGE7bw&utm_campaign=yelp_api_v3&utm_medium=api_v3_business_search&utm_source=45kqYYhpW-MD2mr1wGE7bw,+16176250898,7619.8033391212375,,QNKtyex8OiVxWOA3rA0h-w,02144,Somerville,MA,236 Holland St,,,236 Holland St,42.4025991188447,-71.1270147454037,banks,NA,NA
communications,Hanscom Federal Credit Union,https://www.yelp.com/biz/hanscom-federal-credit-union-boston-3?adjust_creative=45kqYYhpW-MD2mr1wGE7bw&utm_campaign=yelp_api_v3&utm_medium=api_v3_business_search&utm_source=45kqYYhpW-MD2mr1wGE7bw,+16177425741,1777.6222551987196,,gbpvblw9PPH_9gdu2q7npw,02203,Boston,MA,25 New Sudbury St,,,25 New Sudbury St,42.3613075,-71.0595836,banks,NA,NA
